{"破魔神庙":{"title":"破魔神庙","id":"破魔神庙","icon":"breaking_the_demon_god_temple","locations":[{"title":"克拉卡塔神庙","description":"劳鲁的祝福\n1. 宝箱：魔法大杖\n\n需要在早上的时候，转动这里的转盘，将石块转动，完全遮住对面图腾的形状。","longitude":-0.53138399612988,"latitude":0.66525851385036,"tags":[],"media":[],"mapType":"ground"},{"title":"欧塔卡卡神庙","description":"孑然一身之战 计谋\n1. 宝箱：魔像之刚弓","longitude":-1.0194863273325,"latitude":0.97015095966316,"tags":[],"media":[{"id":182,"title":"","file_name":"","attribution":"","url":"//player.bilibili.com/player.html?aid=741059644&cid=1126563115&page=122","type":"bilibili","mine_type":"","meta":null,"order":0}],"mapType":"ground"},{"title":"希斯拉纳神庙","description":"劳鲁的祝福！\n1. 宝箱：蓝宝石","longitude":-0.88680360905454,"latitude":0.94430819252106,"tags":[],"media":[],"mapType":"ground"},{"title":"马卡斯拉神庙","description":"起身之物\n1. 宝箱：妖精回力药水","longitude":-0.57493906705412,"latitude":0.6261756262176,"tags":[],"media":[{"id":173,"title":"","file_name":"","attribution":"","url":"//player.bilibili.com/player.html?aid=271054239&cid=1126279069&page=24","type":"bilibili","mine_type":"","meta":null,"order":0}],"mapType":"ground"},{"title":"巧诺尼希乌神庙","description":"战斗的教导\n1. 宝箱：左纳尼乌姆之剑","longitude":-0.71878039494337,"latitude":0.73458272411203,"tags":[],"media":[{"id":9,"title":"","file_name":"","attribution":"","url":"//player.bilibili.com/player.html?aid=271054239&cid=1126220073&page=6","type":"bilibili","mine_type":"","meta":null,"order":0}],"mapType":"ground"},{"title":"艾乌托乌每神庙","description":"孑然一身之战 潜入\n1. 宝箱：蓝宝石","longitude":-0.95409168045603,"latitude":0.9604215976681,"tags":[],"media":[{"id":179,"title":"","file_name":"","attribution":"","url":"//player.bilibili.com/player.html?aid=741059644&cid=1126548608&page=48","type":"bilibili","mine_type":"","meta":null,"order":0}],"mapType":"ground"},{"title":"塔乌悠希普尼神庙-或进或退","description":"神庙只有1个宝箱\n1. 宝箱掉落：魔像之强弓","longitude":-1.0303951625109,"latitude":0.90961659757407,"tags":[],"media":[{"id":181,"title":"","file_name":"","attribution":"","url":"//player.bilibili.com/player.html?aid=741059644&cid=1126562260&page=91","type":"bilibili","mine_type":"","meta":null,"order":0}],"mapType":"ground"},{"title":"嘎塔尼希希神庙","description":"推拉有序\n1. 宝箱：炸弹花 x 5","longitude":-0.37842228698656,"latitude":0.76171312649831,"tags":[],"media":[{"id":130,"title":"","file_name":"","attribution":"","url":"//player.bilibili.com/player.html?aid=271054239&cid=1126373817&page=39","type":"bilibili","mine_type":"","meta":null,"order":0}],"mapType":"ground"},{"title":"拉希塔奇瓦卡神庙","description":"孑然一身之战 操纵\n1. 宝箱：魔法杖","longitude":-0.40168240356269,"latitude":0.79724374269856,"tags":[],"media":[{"id":121,"title":"","file_name":"","attribution":"","url":"//player.bilibili.com/player.html?aid=271054239&cid=1126326274&page=30","type":"bilibili","mine_type":"","meta":null,"order":0}],"mapType":"ground"},{"title":"乔奇伊喜嘎神庙","description":"劳鲁的祝福\n1. 宝箱：钻石","longitude":-0.42717411803341,"latitude":0.79003465651435,"tags":[],"media":[],"mapType":"ground"},{"title":"马亚奇德基纳神庙","description":"孑然一身之战 追踪\n1. 宝箱：魔像矛","longitude":-0.48186775630259,"latitude":0.83258746101754,"tags":[],"media":[{"id":125,"title":"","file_name":"","attribution":"","url":"//player.bilibili.com/player.html?aid=271054239&cid=1126346060&page=34","type":"bilibili","mine_type":"","meta":null,"order":0}],"mapType":"ground"},{"title":"盖米米卡神庙-回旋之力","description":"只有一个宝箱\n1. 左纳尼乌姆之坚盾","longitude":-0.37758346981045,"latitude":0.85430027224034,"tags":[],"media":[{"id":124,"title":"","file_name":"","attribution":"","url":"//player.bilibili.com/player.html?aid=271054239&cid=1126346029&page=33","type":"bilibili","mine_type":"","meta":null,"order":0}],"mapType":"ground"},{"title":"希纳塔尼卡卡神庙","description":"战斗的教导 偷袭的精髓\n1. 宝箱：3级潜行药水","longitude":-0.42624947017714,"latitude":0.86794581037752,"tags":[],"media":[{"id":123,"title":"","file_name":"","attribution":"","url":"//player.bilibili.com/player.html?aid=271054239&cid=1126326570&page=32","type":"bilibili","mine_type":"","meta":null,"order":0}],"mapType":"ground"},{"title":"伊嘎秀克神庙","description":"劳鲁的祝福\n1. 宝箱：大的左纳乌能源","longitude":-0.36697191502566,"latitude":0.96935994878054,"tags":[],"media":[],"mapType":"ground"},{"title":"拉希瓦卡神庙","description":"漂浮之力\n1. 宝箱：魔法大杖","longitude":-0.36568445469823,"latitude":0.93597642663262,"tags":[],"media":[{"id":132,"title":"","file_name":"","attribution":"","url":"//player.bilibili.com/player.html?aid=271054239&cid=1126466198&page=41","type":"bilibili","mine_type":"","meta":null,"order":0}],"mapType":"ground"},{"title":"乔奇伊乌神庙","description":"这个神殿有两个宝箱\n1. 掉落1：左纳尼乌姆之弓  \n2. 掉落2：大的左纳尼乌姆","longitude":-0.38920206334089,"latitude":0.90971564291998,"tags":[],"media":[{"id":131,"title":"","file_name":"","attribution":"","url":"//player.bilibili.com/player.html?aid=271054239&cid=1126466148&page=40","type":"bilibili","mine_type":"","meta":null,"order":0}],"mapType":"ground"},{"title":"卡马兹奇萨神庙-全力一击","description":"神庙只有1个宝箱\n1. 宝箱掉落：左纳尼乌姆之刚大剑","longitude":-0.45503420139255,"latitude":0.94438670167615,"tags":[],"media":[{"id":133,"title":"","file_name":"","attribution":"","url":"//player.bilibili.com/player.html?aid=271054239&cid=1126466075&page=42","type":"bilibili","mine_type":"","meta":null,"order":0}],"mapType":"ground"},{"title":"奇马亚塔神庙","description":"孑然一身之战 粉碎\n1. 宝箱：魔像剑","longitude":-0.49603744649119,"latitude":0.96412502205524,"tags":[],"media":[{"id":136,"title":"","file_name":"","attribution":"","url":"//player.bilibili.com/player.html?aid=271054239&cid=1126466380&page=45","type":"bilibili","mine_type":"","meta":null,"order":0}],"mapType":"ground"},{"title":"希巴吉塔奇欧神庙-连接道路之钥","description":"神庙只有1个宝箱\n1. 宝箱掉落：左纳尼乌姆之强大剑","longitude":-0.52976890707123,"latitude":0.93889427946975,"tags":[],"media":[{"id":135,"title":"","file_name":"","attribution":"","url":"//player.bilibili.com/player.html?aid=271054239&cid=1126466370&page=44","type":"bilibili","mine_type":"","meta":null,"order":0}],"mapType":"ground"},{"title":"吉欧塔奇欧神庙","description":"劳鲁的祝福\n1. 宝箱：魔法长杖","longitude":-0.56925102376817,"latitude":0.93099890741888,"tags":[],"media":[],"mapType":"ground"},{"title":"马亚可可神庙-坠落一刹","description":"只有一个一个宝箱\n1. 大的左纳乌能源","longitude":-0.6110362779811,"latitude":0.97117031201888,"tags":[],"media":[{"id":138,"title":"","file_name":"","attribution":"","url":"//player.bilibili.com/player.html?aid=271054239&cid=1126489825&page=47","type":"bilibili","mine_type":"","meta":null,"order":0}],"mapType":"ground"},{"title":"米聂塔卡卡神庙","description":"劳鲁的祝福\n1. 宝箱：大容量电池","longitude":-0.67532346365186,"latitude":0.95366332173911,"tags":[],"media":[],"mapType":"ground"},{"title":"马亚欧塔奇神庙","description":"劳鲁的祝福\n1. 宝箱：钻石","longitude":-0.76192662832742,"latitude":0.95666697841743,"tags":[],"media":[{"id":180,"title":"","file_name":"","attribution":"","url":"//player.bilibili.com/player.html?aid=741059644&cid=1126562947&page=116","type":"bilibili","mine_type":"","meta":null,"order":0},{"id":177,"title":"","file_name":"","attribution":"","url":"//player.bilibili.com/player.html?aid=741059644&cid=1126548496&page=46","type":"bilibili","mine_type":"","meta":null,"order":0}],"mapType":"ground"},{"title":"欧修扎恩乌神庙","description":"神庙只有1个宝箱！\n1. 宝箱掉落：左纳尼乌姆之弓","longitude":-0.80355451223789,"latitude":0.96662193595522,"tags":[],"media":[],"mapType":"ground"},{"title":"鲁塔富乌每神庙","description":"劳鲁的祝福\n1. 宝箱：黄玉","longitude":-0.91865346547576,"latitude":0.92628701693442,"tags":[],"media":[{"id":178,"title":"","file_name":"","attribution":"","url":"//player.bilibili.com/player.html?aid=741059644&cid=1126563501&page=133","type":"bilibili","mine_type":"","meta":null,"order":0}],"mapType":"ground"},{"title":"乔尼乌神庙","description":"**神庙任务**：造船把水晶运过去。\n\n劳鲁的祝福\n1. 宝箱：大的左纳乌能源","longitude":-0.49315563863905,"latitude":0.73903875286804,"tags":[],"media":[],"mapType":"ground"},{"title":"奇希诺纳神庙-风之力","description":"神庙只有1个宝箱\n1. 宝箱掉落：魔像之刚弓","longitude":-0.51788700038506,"latitude":0.79103187566837,"tags":[],"media":[{"id":172,"title":"","file_name":"","attribution":"","url":"//player.bilibili.com/player.html?aid=271054239&cid=1126279048&page=23","type":"bilibili","mine_type":"","meta":null,"order":0}],"mapType":"ground"},{"title":"提马瓦卡神庙","description":"逆流而行\n1. 宝箱：左纳尼乌姆之硬盾","longitude":-0.57311991634248,"latitude":0.82095642596843,"tags":[],"media":[{"id":176,"title":"","file_name":"","attribution":"","url":"//player.bilibili.com/player.html?aid=271054239&cid=1126279527&page=25","type":"bilibili","mine_type":"","meta":null,"order":0}],"mapType":"ground"},{"title":"艾可奇乌神庙-下落上升","description":"神庙只有1个宝箱\n1. 宝箱掉落：左纳尼乌姆之盾","longitude":-0.62659243526369,"latitude":0.79452320111383,"tags":[],"media":[{"id":119,"title":"","file_name":"","attribution":"","url":"//player.bilibili.com/player.html?aid=271054239&cid=1126297817&page=28","type":"bilibili","mine_type":"","meta":null,"order":0}],"mapType":"ground"},{"title":"尼恩吉希神庙","description":"劳鲁的祝福\n1. 宝箱：魔像之刚弓","longitude":-0.67658894243849,"latitude":0.839265190921,"tags":[],"media":[{"id":159,"title":"","file_name":"","attribution":"","url":"//player.bilibili.com/player.html?aid=271054239&cid=1127757047&page=73","type":"bilibili","mine_type":"","meta":null,"order":0}],"mapType":"ground"},{"title":"普普恩凯神庙","description":"劳鲁的祝福\n1. 宝箱：左纳乌剑","longitude":-0.65805502856767,"latitude":0.86187464512308,"tags":[],"media":[{"id":161,"title":"","file_name":"","attribution":"","url":"//player.bilibili.com/player.html?aid=271054239&cid=1127771475&page=75","type":"bilibili","mine_type":"","meta":null,"order":0}],"mapType":"ground"},{"title":"姆萨诺奇拉神庙-摇摇晃晃","description":"姆萨诺奇拉神庙只有一个宝箱\n1. 宝箱掉落：大的左纳乌能源","longitude":-0.67290373768293,"latitude":0.85595299305992,"tags":[],"media":[{"id":158,"title":"","file_name":"","attribution":"","url":"//player.bilibili.com/player.html?aid=271054239&cid=1127756048&page=72","type":"bilibili","mine_type":"","meta":null,"order":0}],"mapType":"ground"},{"title":"世克恩波马拉神庙","description":"劳鲁的祝福\n1. 宝箱：钻石","longitude":-0.69060427144373,"latitude":0.86992300792267,"tags":[],"media":[{"id":160,"title":"","file_name":"","attribution":"","url":"//player.bilibili.com/player.html?aid=271054239&cid=1127762395&page=74","type":"bilibili","mine_type":"","meta":null,"order":0}],"mapType":"ground"},{"title":"奇卡克恩神庙-照亮黑暗之物","description":"神庙只有5个宝箱\n1. 宝箱掉落：琥珀\n2. 宝箱掉落：夜光石\n3. 宝箱掉落：左纳尼乌姆之弓\n4. 宝箱掉落：蛋白石\n5. 宝箱掉落：小钥匙","longitude":-0.73085886433924,"latitude":0.89918778448211,"tags":[],"media":[{"id":139,"title":"","file_name":"","attribution":"","url":"//player.bilibili.com/player.html?aid=271054239&cid=1126489840&page=48","type":"bilibili","mine_type":"","meta":null,"order":0}],"mapType":"ground"},{"title":"希克克奇神庙-左右为难","description":"神庙只有1个宝箱\n1. 宝箱掉落：左纳尼乌姆之大剑","longitude":-0.65155587884257,"latitude":0.90253509402594,"tags":[],"media":[{"id":137,"title":"","file_name":"","attribution":"","url":"//player.bilibili.com/player.html?aid=271054239&cid=1126466503&page=46","type":"bilibili","mine_type":"","meta":null,"order":0}],"mapType":"ground"},{"title":"马拉克古奇神庙","description":"冲刺之物\n1. 宝箱：魔像之强弓","longitude":-0.57518753182518,"latitude":0.8837870376554,"tags":[],"media":[{"id":175,"title":"","file_name":"","attribution":"","url":"//player.bilibili.com/player.html?aid=271054239&cid=1126297534&page=26","type":"bilibili","mine_type":"","meta":null,"order":0}],"mapType":"ground"},{"title":"伊希希每神庙","description":"孑然一身之战 倒放\n1. 宝箱：魔法杖\n2. 需要阿陨技能","longitude":-0.57021185349248,"latitude":0.9065159615116,"tags":[],"media":[],"mapType":"ground"},{"title":"希兹摩伊神庙神庙","description":"操纵之物\n只有一个宝箱\n1. 宝箱1：魔像之刚弓","longitude":-0.53186231494402,"latitude":0.88973166932134,"tags":[],"media":[{"id":134,"title":"","file_name":"","attribution":"","url":"//player.bilibili.com/player.html?aid=271054239&cid=1126466356&page=43","type":"bilibili","mine_type":"","meta":null,"order":0}],"mapType":"ground"},{"title":"罗兹马姆神庙-失衡关系","description":"罗兹马姆神庙只有一个宝箱\n1. 大的左纳尼乌姆","longitude":-0.94808664618762,"latitude":0.60368120014641,"tags":[],"media":[{"id":231,"title":"","file_name":"","attribution":"","url":"//player.bilibili.com/player.html?aid=528548790&cid=1125768994&page=56","type":"bilibili","mine_type":"","meta":null,"order":0}],"mapType":"ground"},{"title":"奇奇马乌神庙","description":"劳鲁的祝福\n1. 宝箱：左纳尼乌姆之刚枪","longitude":-0.93332013073663,"latitude":0.48625560272433,"tags":[],"media":[{"id":221,"title":"","file_name":"","attribution":"","url":"//player.bilibili.com/player.html?aid=528548790&cid=1125769236&page=59","type":"bilibili","mine_type":"","meta":null,"order":0}],"mapType":"ground"},{"title":"伊修奇恩神庙","description":"劳鲁的祝福\n1. 宝箱：黄玉","longitude":-0.74324521897012,"latitude":0.44881615933768,"tags":[],"media":[{"id":230,"title":"","file_name":"","attribution":"","url":"//player.bilibili.com/player.html?aid=528548790&cid=1125770482&page=74","type":"bilibili","mine_type":"","meta":null,"order":0}],"mapType":"ground"},{"title":"吉乌可乌每神庙-吻合之形","description":"***位置***：就再高地中间，有眼都能看到\n\n***解决方式***：第二个滑梯的时候需要把铁板横过来组装，具体可以看截图或者上面的视频\n\n***这神庙只有一个宝箱***：\n1. 2级防滑药水","longitude":-0.64027161690319,"latitude":0.53804006253446,"tags":[],"media":[{"id":312,"title":"","file_name":"","attribution":"","url":"//player.bilibili.com/player.html?aid=528548790&cid=1125770625&page=76","type":"bilibili","mine_type":"","meta":null,"order":0},{"id":297,"title":"","file_name":"","attribution":"","url":"https://img.caimogu.cc/data/attachment/editor/2023/05/17/1814af140b2b8f13958600e1b08a89cf.jpeg","type":"image","mine_type":"","meta":null,"order":0}],"mapType":"ground"},{"title":"乌托吉希神庙","description":"***位置***：在比托谷的洞窟里\n\n***开启方式***：需要捡起旁边的左纳乌长枪射进对面发亮的圆环里才能开启神庙！\n\n***小技巧***：把蝙蝠翅膀丢出来，然后用余料建造把枪和蝙蝠翅膀合成后可以飞的更远\n\n***神庙宝箱**：只有一个\n\n1. 宝箱：大的左纳乌能源","longitude":-0.61563820930417,"latitude":0.52018804065966,"tags":[],"media":[{"id":305,"title":"","file_name":"","attribution":"","url":"https://img.caimogu.cc/data/attachment/editor/2023/05/18/21bfa73aac418b5f02fb470d3380d2d0.jpeg","type":"image","mine_type":"","meta":null,"order":0},{"id":152,"title":"","file_name":"","attribution":"","url":"//player.bilibili.com/player.html?aid=271054239&cid=1127190542&page=66","type":"bilibili","mine_type":"","meta":null,"order":0}],"mapType":"ground"},{"title":"摩夏皮恩神庙","description":"劳鲁的祝福\n1. 宝箱：左纳尼乌姆之坚盾","longitude":-0.50965418759196,"latitude":0.83912349589679,"tags":[],"media":[{"id":126,"title":"","file_name":"","attribution":"","url":"//player.bilibili.com/player.html?aid=271054239&cid=1126346220&page=35","type":"bilibili","mine_type":"","meta":null,"order":0}],"mapType":"ground"},{"title":"多米诸伊诺神庙-横置通道","description":"神庙只有3个宝箱\n1. 宝箱掉落：左纳乌能源\n2. 宝箱掉落：左纳尼乌姆之硬盾\n3. 宝箱掉落：木箭 x10","longitude":-0.46439038620514,"latitude":0.80654417418179,"tags":[],"media":[{"id":120,"title":"","file_name":"","attribution":"","url":"//player.bilibili.com/player.html?aid=271054239&cid=1126297923&page=29","type":"bilibili","mine_type":"","meta":null,"order":0}],"mapType":"ground"},{"title":"摩摩希卡神庙","description":"劳鲁的祝福\n1. 宝箱：大容量电池","longitude":-0.48985715932668,"latitude":0.9012125464627,"tags":[],"media":[],"mapType":"ground"},{"title":"诺乌达神庙","description":"孑然一身之战 中等\n1. 宝箱：1级生命药水","longitude":-0.86942327274028,"latitude":0.86086652645071,"tags":[],"media":[{"id":185,"title":"","file_name":"","attribution":"","url":"//player.bilibili.com/player.html?aid=741059644&cid=1126563409&page=134","type":"bilibili","mine_type":"","meta":null,"order":0}],"mapType":"ground"},{"title":"萨喜罗瓦神庙","description":"#### 神庙进入方式\n1. 从卡尔加岭 鸟望台直接飞过来就行\n萨喜罗瓦神庙通只有一个宝箱\n1. 宝箱掉落：2级耐寒药水","longitude":-0.94418180240146,"latitude":0.87494114442976,"tags":[],"media":[{"id":26,"title":"","file_name":"","attribution":"","url":"//player.bilibili.com/player.html?aid=228575130&cid=1125665311&page=1","type":"bilibili","mine_type":"","meta":null,"order":0}],"mapType":"ground"},{"title":"嘎塔奇萨神庙-乘风而行","description":"##### 神庙进入方式\n可直接从卡尔加岭 鸟望台飞过来\n##### 神庙宝箱获取方式\n大圆盘中间的冰可以用火箭攻击掉后进入下面就能看到宝箱了\n##### 神庙只有1个宝箱\n1. 宝箱掉落：魔像之强弓","longitude":-0.96508678651867,"latitude":0.83174382576762,"tags":[],"media":[{"id":29,"title":"","file_name":"","attribution":"","url":"//player.bilibili.com/player.html?aid=486038858&cid=1126165181&page=1","type":"bilibili","mine_type":"","meta":null,"order":0}],"mapType":"ground"},{"title":"伊卡塔克神庙","description":"劳鲁的祝福\n1. 宝箱：大容量电池","longitude":-0.98766025758781,"latitude":0.78436999883783,"tags":[],"media":[{"id":184,"title":"","file_name":"","attribution":"","url":"//player.bilibili.com/player.html?aid=741059644&cid=1126562384&page=104","type":"bilibili","mine_type":"","meta":null,"order":0}],"mapType":"ground"},{"title":"欧罗姆瓦卡神庙","description":"这个神庙只有一个宝箱：\n1.  红宝石","longitude":-0.92423137879229,"latitude":0.81904220199499,"tags":[],"media":[],"mapType":"ground"},{"title":"希纳卡瓦卡神庙-飘浮之物","description":"神庙攻略可以直接查看视频！！\n神庙只有1个宝箱\n1. 宝箱掉落：蛋白石","longitude":-0.80466414574011,"latitude":0.75730781956182,"tags":[],"media":[{"id":70,"title":"","file_name":"","attribution":"","url":"//player.bilibili.com/player.html?aid=271054239&cid=1126220073&page=8","type":"bilibili","mine_type":"","meta":null,"order":0},{"id":69,"title":"","file_name":"","attribution":"","url":"//player.bilibili.com/player.html?aid=271054239&cid=1126220073&page=8","type":"bilibili","mine_type":"","meta":null,"order":0},{"id":68,"title":"","file_name":"","attribution":"","url":"//player.bilibili.com/player.html?aid=271054239&cid=1126220073&page=8","type":"bilibili","mine_type":"","meta":null,"order":0}],"mapType":"ground"},{"title":"塔奇伊哈巴诺神庙-劳鲁的祝福","description":"##### 神庙位置\n从前面拉布拉山的洞窟进入，神庙在洞窟里\n##### 神庙掉落\n1. 宝箱：大的左纳乌能源","longitude":-0.83504820946195,"latitude":0.78811823420129,"tags":[],"media":[],"mapType":"ground"},{"title":"鲁纳奇塔神庙","description":"神庙剪辑，这个神庙是要运球过来，需要把两个L形的道具拼一起，然后放到那一个的滑索上就行了，具体可以直接看UIP呆呆的视频很全！\n搬运之形！\n1. 宝箱：魔像之弓","longitude":-0.88585997704084,"latitude":0.78631595987437,"tags":[],"media":[{"id":67,"title":"","file_name":"","attribution":"","url":"//player.bilibili.com/player.html?aid=271054239&cid=1126220073&page=51","type":"bilibili","mine_type":"","meta":null,"order":0}],"mapType":"ground"},{"title":"马克鲁奇萨神庙","description":"战斗的教导 弓箭的精髓\n1. 宝箱：魔像之强弓","longitude":-0.90834311231615,"latitude":0.74744715085477,"tags":[],"media":[{"id":140,"title":"","file_name":"","attribution":"","url":"//player.bilibili.com/player.html?aid=271054239&cid=1126489954&page=52","type":"bilibili","mine_type":"","meta":null,"order":0}],"mapType":"ground"},{"title":"伊乌恩欧罗克神庙-选择大小","description":"从库库甲谷西边的洞窟进\n这神庙只有一个宝箱\n1. 木箭 x10","longitude":-0.95718449244853,"latitude":0.76363851311493,"tags":[],"media":[],"mapType":"ground"},{"title":"兹拉卡瓦卡神庙-重叠通道","description":"神庙只有1个宝箱\n1. 宝箱掉落：魔法杖","longitude":-0.95477700251899,"latitude":0.68850189948824,"tags":[],"media":[],"mapType":"ground"},{"title":"嘎萨萨神庙-切断时机","description":"神庙只有2个宝箱\n1. 宝箱掉落：小钥匙\n2. 宝箱掉落：大的左纳乌能源","longitude":-1.0025873510755,"latitude":0.71012962180504,"tags":[],"media":[],"mapType":"ground"},{"title":"欧兹兹马神庙","description":"劳鲁的祝福\n1. 宝箱：黄玉","longitude":-1.0277495610673,"latitude":0.65235324927026,"tags":[],"media":[],"mapType":"ground"},{"title":"马亚马兹诺神庙","description":"只有一个宝箱\n1. 大的左纳乌能源","longitude":-1.03742308913,"latitude":0.59280852033417,"tags":[],"media":[{"id":232,"title":"","file_name":"","attribution":"","url":"//player.bilibili.com/player.html?aid=528548790&cid=1125769447&page=62","type":"bilibili","mine_type":"","meta":null,"order":0}],"mapType":"ground"},{"title":"克达尼萨拉神庙","description":"沙上桥梁\n1. 宝箱：木箭 x10\n2. 宝箱：3级速速药水","longitude":-1.0032807381416,"latitude":0.5472123630539,"tags":[],"media":[{"id":229,"title":"","file_name":"","attribution":"","url":"//player.bilibili.com/player.html?aid=528548790&cid=1130607644&page=57","type":"bilibili","mine_type":"","meta":null,"order":0}],"mapType":"ground"},{"title":"索琉塔尼高神庙-埋没之光","description":"这神庙有两个宝箱\n1. 小钥匙\n2. 木箭 x10","longitude":-0.98234660772928,"latitude":0.48828015714761,"tags":[],"media":[{"id":217,"title":"","file_name":"","attribution":"","url":"//player.bilibili.com/player.html?aid=528548790&cid=1125769816&page=69","type":"bilibili","mine_type":"","meta":null,"order":0}],"mapType":"ground"},{"title":"米琉塔尼高神庙","description":"孑然一身之战 回避\n1. 宝箱：魔像剑","longitude":-1.0400248303855,"latitude":0.47943991148334,"tags":[],"media":[{"id":212,"title":"","file_name":"","attribution":"","url":"//player.bilibili.com/player.html?aid=528548790&cid=1125769101&page=55","type":"bilibili","mine_type":"","meta":null,"order":0}],"mapType":"ground"},{"title":"卡拉哈塔基神庙-徘徊之火","description":"神庙只有1个宝箱\n1. 宝箱掉落：魔像之刚弓","longitude":-0.9709777763581,"latitude":0.4409155429303,"tags":[],"media":[{"id":210,"title":"","file_name":"","attribution":"","url":"//player.bilibili.com/player.html?aid=528548790&cid=1125769771&page=71","type":"bilibili","mine_type":"","meta":null,"order":0}],"mapType":"ground"},{"title":"伊拉萨库神庙","description":"劳鲁的祝福\n1. 宝箱：大的左纳乌能源","longitude":-1.0024776390374,"latitude":0.4257304484363,"tags":[],"media":[{"id":211,"title":"","file_name":"","attribution":"","url":"//player.bilibili.com/player.html?aid=528548790&cid=1125769634&page=65","type":"bilibili","mine_type":"","meta":null,"order":0}],"mapType":"ground"},{"title":"希瓦卡马神庙-三只圆球","description":"神庙只有1个宝箱\n1. 宝箱掉落：炸弹花 x 5","longitude":-0.87887672883465,"latitude":0.46185492673617,"tags":[],"media":[{"id":148,"title":"","file_name":"","attribution":"","url":"//player.bilibili.com/player.html?aid=271054239&cid=1127007333&page=61","type":"bilibili","mine_type":"","meta":null,"order":0}],"mapType":"ground"},{"title":"摩兹希希神庙","description":"劳鲁的祝福\n1. 宝箱：大的左纳乌能源","longitude":-0.83192734224565,"latitude":0.45164139937077,"tags":[],"media":[{"id":147,"title":"","file_name":"","attribution":"","url":"//player.bilibili.com/player.html?aid=271054239&cid=1126982839&page=60","type":"bilibili","mine_type":"","meta":null,"order":0}],"mapType":"ground"},{"title":"奇塔瓦卡神庙-前进之路","description":"神庙只有1个宝箱\n1. 宝箱掉落：木箭 x10","longitude":-0.81218628389587,"latitude":0.49137966170018,"tags":[],"media":[{"id":146,"title":"","file_name":"","attribution":"","url":"//player.bilibili.com/player.html?aid=271054239&cid=1126638989&page=59","type":"bilibili","mine_type":"","meta":null,"order":0}],"mapType":"ground"},{"title":"艾恩欧马神庙","description":"劳鲁的祝福\n1. 宝箱：左纳乌剑","longitude":-0.69533217574002,"latitude":0.51988328650772,"tags":[],"media":[{"id":149,"title":"","file_name":"","attribution":"","url":"//player.bilibili.com/player.html?aid=271054239&cid=1127058897&page=62","type":"bilibili","mine_type":"","meta":null,"order":0}],"mapType":"ground"},{"title":"乌兹修奇神庙-纵与横","description":"神庙只有1个宝箱\n1. 宝箱掉落：1级潜行药水","longitude":-0.65397285641018,"latitude":0.45992928022125,"tags":[],"media":[{"id":235,"title":"","file_name":"","attribution":"","url":"//player.bilibili.com/player.html?aid=528548790&cid=1125770646&page=80","type":"bilibili","mine_type":"","meta":null,"order":0}],"mapType":"ground"},{"title":"乔久乌乌神庙","description":"连接桥梁\n1. 宝箱：大的左纳尼乌姆","longitude":-0.59466385067194,"latitude":0.44490937804201,"tags":[],"media":[{"id":157,"title":"","file_name":"","attribution":"","url":"//player.bilibili.com/player.html?aid=271054239&cid=1127413849&page=71","type":"bilibili","mine_type":"","meta":null,"order":0}],"mapType":"ground"},{"title":"希富米米神庙","description":"孑然一身之战 水流\n1. 宝箱：魔像剑","longitude":-0.49922012508435,"latitude":0.46679551075995,"tags":[],"media":[{"id":155,"title":"","file_name":"","attribution":"","url":"//player.bilibili.com/player.html?aid=271054239&cid=1127352753&page=69","type":"bilibili","mine_type":"","meta":null,"order":0}],"mapType":"ground"},{"title":"巴米托卡神庙","description":"劳鲁的祝福\n1. 宝箱：大容量电池","longitude":-0.47982238948848,"latitude":0.47168769592984,"tags":[],"media":[{"id":156,"title":"","file_name":"","attribution":"","url":"//player.bilibili.com/player.html?aid=271054239&cid=1127380044&page=70","type":"bilibili","mine_type":"","meta":null,"order":0}],"mapType":"ground"},{"title":"拖奇悠乌神庙","description":"劳鲁的祝福\n1. 宝箱：大的左纳乌能源","longitude":-0.53704507821158,"latitude":0.53123598764034,"tags":[],"media":[{"id":154,"title":"","file_name":"","attribution":"","url":"//player.bilibili.com/player.html?aid=271054239&cid=1127237913&page=68","type":"bilibili","mine_type":"","meta":null,"order":0}],"mapType":"ground"},{"title":"扎恩米卡卡神庙-掬捧之形","description":"这个神庙只有一个宝箱\n宝箱埋在下层的一大堆铁球下，靠近坑口，获取方法：使用究极手将铁球移出，建议粘合多个铁球一起移动，效率更高\n1. 宝箱内物品：左纳尼乌姆之强大剑","longitude":-0.45249903752659,"latitude":0.54576726413607,"tags":[],"media":[],"mapType":"ground"},{"title":"阿聂达米米卡神庙-往复运动","description":"神庙只有1个宝箱\n1. 宝箱掉落：大的左纳乌能源","longitude":-0.39799655034489,"latitude":0.54696883914136,"tags":[],"media":[],"mapType":"ground"},{"title":"马亚喜希卡神庙-劳鲁的祝福","description":"****位置***：艾奇斯帕森林的洞窟\n\n这个神庙只有一个宝箱\n1. 宝箱：魔法大杖","longitude":-0.43301547124256,"latitude":0.55392080407204,"tags":[],"media":[],"mapType":"ground"},{"title":"欧欧基恩神庙","description":"劳鲁的祝福\n1. 宝箱：大容量电池","longitude":-0.50488944948725,"latitude":0.62419338856949,"tags":[],"media":[],"mapType":"ground"},{"title":"乔高乌神庙-劳鲁的祝福","description":"拉聂尔参道东边的洞窟\n1. 宝箱：1级生命药水","longitude":-0.46250875524947,"latitude":0.61618931095903,"tags":[],"media":[],"mapType":"ground"},{"title":"扎克斯克神庙","description":"孑然一身之战 上升\n1. 宝箱：魔像矛","longitude":-0.44910064524183,"latitude":0.59496070675101,"tags":[],"media":[],"mapType":"ground"},{"title":"吉卡伊世恩神庙-越狱之路","description":"神庙只有1个宝箱\n1. 宝箱掉落：魔法长杖","longitude":-0.39528480356438,"latitude":0.5807135623777,"tags":[],"media":[],"mapType":"ground"},{"title":"悠米诸奇神庙","description":"劳鲁的祝福\n1. 宝箱：钻石","longitude":-0.3851029730385,"latitude":0.65865691345758,"tags":[],"media":[{"id":129,"title":"","file_name":"","attribution":"","url":"//player.bilibili.com/player.html?aid=271054239&cid=1126373680&page=38","type":"bilibili","mine_type":"","meta":null,"order":0}],"mapType":"ground"},{"title":"阿珀盖凯神庙-风之翼","description":"神庙只有1个宝箱\n1. 宝箱掉落：左纳尼乌姆之强枪","longitude":-0.4229543066559,"latitude":0.68697908750521,"tags":[],"media":[{"id":128,"title":"","file_name":"","attribution":"","url":"//player.bilibili.com/player.html?aid=271054239&cid=1126373195&page=37","type":"bilibili","mine_type":"","meta":null,"order":0}],"mapType":"ground"},{"title":"伊黑恩阿神庙-滞空之物","description":"神庙只有1个宝箱\n1. 宝箱掉落：木箭 x 5","longitude":-0.42956326966265,"latitude":0.74370874855218,"tags":[],"media":[{"id":122,"title":"","file_name":"","attribution":"","url":"//player.bilibili.com/player.html?aid=271054239&cid=1126326534&page=31","type":"bilibili","mine_type":"","meta":null,"order":0}],"mapType":"ground"},{"title":"摩嘎瓦卡神庙","description":"这神庙有两个宝箱:\n1. 魔法大杖\n2. 蛋白石","longitude":-0.46475385193719,"latitude":0.73195091923832,"tags":[],"media":[{"id":127,"title":"","file_name":"","attribution":"","url":"//player.bilibili.com/player.html?aid=271054239&cid=1126373601&page=36","type":"bilibili","mine_type":"","meta":null,"order":0}],"mapType":"ground"},{"title":"乔奇希乌神庙","description":"劳鲁的祝福\n1. 宝箱：大容量电池","longitude":-0.63546526462449,"latitude":0.56495800671649,"tags":[],"media":[{"id":151,"title":"","file_name":"","attribution":"","url":"//player.bilibili.com/player.html?aid=271054239&cid=1127133675&page=64","type":"bilibili","mine_type":"","meta":null,"order":0}],"mapType":"ground"},{"title":"艾修世神庙","description":"战斗的教导 盾的精髓\n1. 宝箱：左纳尼乌姆之坚盾","longitude":-0.59006083042104,"latitude":0.56195407788897,"tags":[],"media":[{"id":153,"title":"","file_name":"","attribution":"","url":"//player.bilibili.com/player.html?aid=271054239&cid=1127215652&page=67","type":"bilibili","mine_type":"","meta":null,"order":0}],"mapType":"ground"},{"title":"摩罗恩克神庙","description":"弹飞之物\n1. 宝箱：2级潜行药水","longitude":-0.61684000521402,"latitude":0.64623512165637,"tags":[],"media":[{"id":168,"title":"","file_name":"","attribution":"","url":"//player.bilibili.com/player.html?aid=271054239&cid=1126278495&page=19","type":"bilibili","mine_type":"","meta":null,"order":0}],"mapType":"ground"},{"title":"兹卡罗克神庙-前进之力","description":"神庙只有1个宝箱\n1. 宝箱掉落：左纳乌剑","longitude":-0.63649523287339,"latitude":0.68477050045171,"tags":[],"media":[{"id":169,"title":"","file_name":"","attribution":"","url":"//player.bilibili.com/player.html?aid=271054239&cid=1126278949&page=20","type":"bilibili","mine_type":"","meta":null,"order":0}],"mapType":"ground"},{"title":"乔恩萨乌神庙","description":"越深越强\n1. 宝箱：魔像之强弓","longitude":-0.57713533417368,"latitude":0.7037349083763,"tags":[],"media":[{"id":170,"title":"","file_name":"","attribution":"","url":"//player.bilibili.com/player.html?aid=271054239&cid=1126278979&page=21","type":"bilibili","mine_type":"","meta":null,"order":0}],"mapType":"ground"},{"title":"乔乔尼乌神庙","description":"孑然一身之战 旋转\n1. 宝箱：魔法杖\n洞穴神庙，入口在西南方向的灌木丛","longitude":-0.61610969146258,"latitude":0.72700856316656,"tags":[],"media":[],"mapType":"ground"},{"title":"雷恩伊杰神庙","description":"雷恩伊杰神庙只有一个宝箱\n1. 宝箱掉落：左纳尼乌姆之硬盾","longitude":-0.64855369170664,"latitude":0.76142376534881,"tags":[],"media":[{"id":166,"title":"","file_name":"","attribution":"","url":"//player.bilibili.com/player.html?aid=271054239&cid=1126255122&page=16","type":"bilibili","mine_type":"","meta":null,"order":0}],"mapType":"ground"},{"title":"伊修达古恩神庙-吹风之物","description":"##### 神庙进入方式\n1. 到另外一个山头高一点的，滑翔过去\n##### 神庙只有1个宝箱\n1. 宝箱掉落：蛋白石","longitude":-0.76617030633406,"latitude":0.73265789039478,"tags":[],"media":[{"id":12,"title":"","file_name":"","attribution":"","url":"//player.bilibili.com/player.html?aid=271054239&cid=1126220073&page=9","type":"bilibili","mine_type":"","meta":null,"order":0}],"mapType":"ground"},{"title":"欧亚米欧神庙","description":"战斗的教导 投掷的精髓\n1. 炸弹花x3","longitude":-0.67820498934759,"latitude":0.73591918873076,"tags":[],"media":[{"id":10,"title":"","file_name":"","attribution":"","url":"//player.bilibili.com/player.html?aid=271054239&cid=1126220073&page=7","type":"bilibili","mine_type":"","meta":null,"order":0}],"mapType":"ground"},{"title":"世帕帕神庙-归路","description":"神庙只有1个宝箱\n1. 宝箱掉落：魔像之强弓","longitude":-0.68661639681852,"latitude":0.77986065563771,"tags":[],"media":[{"id":14,"title":"","file_name":"","attribution":"","url":"//player.bilibili.com/player.html?aid=528548790&cid=1126845659&page=11","type":"bilibili","mine_type":"","meta":null,"order":0}],"mapType":"ground"},{"title":"世鲁塔波马奇神庙","description":"只有一个宝箱\n1. 魔法杖","longitude":-0.71433415241759,"latitude":0.78664064645723,"tags":[],"media":[{"id":167,"title":"","file_name":"","attribution":"","url":"//player.bilibili.com/player.html?aid=271054239&cid=1126278552&page=18","type":"bilibili","mine_type":"","meta":null,"order":0}],"mapType":"ground"},{"title":"帖恩马帖恩神庙","description":"劳鲁的祝福\n1. 宝箱：大的左纳乌能源","longitude":-0.74614436150364,"latitude":0.81230052191665,"tags":[],"media":[{"id":16,"title":"","file_name":"","attribution":"","url":"//player.bilibili.com/player.html?aid=528548790&cid=1126845659&page=9","type":"bilibili","mine_type":"","meta":null,"order":0}],"mapType":"ground"},{"title":"奇乌悠悠乌神庙-挡火之物","description":"#### 神庙攻略\n这个神庙的要点是把石板放到冰块上面滑动到一进门的地方，然后再把石板放到冰块上面档住火把开关压开就行！\n##### 神庙只有1个宝箱\n1. 宝箱掉落：左纳尼乌姆之枪","longitude":-0.78313904732605,"latitude":0.85367241360915,"tags":[],"media":[{"id":13,"title":"","file_name":"","attribution":"","url":"//player.bilibili.com/player.html?aid=528548790&cid=1126845659&page=12","type":"bilibili","mine_type":"","meta":null,"order":0}],"mapType":"ground"},{"title":"欧罗奇乌姆神庙-坠落之勇","description":"神庙只有2个宝箱\n1. 宝箱掉落：小钥匙\n2. 宝箱掉落：木箭 x 5","longitude":-0.82004490858247,"latitude":0.89189190593981,"tags":[],"media":[{"id":186,"title":"","file_name":"","attribution":"","url":"//player.bilibili.com/player.html?aid=741059644&cid=1126548602&page=47","type":"bilibili","mine_type":"","meta":null,"order":0}],"mapType":"ground"},{"title":"马亚乌希尤神庙-排列组合","description":"神庙只有1个宝箱\n1. 宝箱掉落：大的左纳乌能源","longitude":-0.78819163547411,"latitude":0.89101330131268,"tags":[],"media":[{"id":187,"title":"","file_name":"","attribution":"","url":"//player.bilibili.com/player.html?aid=741059644&cid=1126548488&page=45","type":"bilibili","mine_type":"","meta":null,"order":0}],"mapType":"ground"},{"title":"斯斯毕艾神庙","description":"劳鲁的祝福\n1. 宝箱：魔法长杖","longitude":-0.67772544842072,"latitude":0.55454015984387,"tags":[],"media":[{"id":150,"title":"","file_name":"","attribution":"","url":"//player.bilibili.com/player.html?aid=271054239&cid=1127076326&page=63","type":"bilibili","mine_type":"","meta":null,"order":0}],"mapType":"ground"},{"title":"卡米诸纳神庙-孑然一身之战 初等","description":"***位置***：就在平地有眼就能看到\n\n***解决办法***：这个神庙进去会脱光衣服，一进门右手边有武器和装备拿，然后进去就硬打就行！\n\n***掉落***：这个神庙只有一个宝箱\n1. 宝箱：弹簧盾","longitude":-0.71559132906052,"latitude":0.58987632519914,"tags":[],"media":[{"id":286,"title":"","file_name":"","attribution":"","url":"https://img.caimogu.cc/data/attachment/editor/2023/05/17/886597dc1ca45f2e8bc46a6a0aac80be.jpeg","type":"image","mine_type":"","meta":null,"order":0},{"id":164,"title":"","file_name":"","attribution":"","url":"//player.bilibili.com/player.html?aid=271054239&cid=1126254979&page=15","type":"bilibili","mine_type":"","meta":null,"order":0}],"mapType":"ground"},{"title":"塔吉卡兹神庙","description":"***神庙位置***：就在河边\n\n***宝箱掉落***：\n1. 刺盾","longitude":-0.67683294903924,"latitude":0.63158120152156,"tags":[],"media":[{"id":280,"title":"","file_name":"","attribution":"","url":"https://img.caimogu.cc/data/attachment/editor/2023/05/17/2cccd921848b12f6794d033caa2432d9.jpeg","type":"image","mine_type":"","meta":null,"order":0},{"id":163,"title":"","file_name":"","attribution":"","url":"//player.bilibili.com/player.html?aid=271054239&cid=1126255027&page=14","type":"bilibili","mine_type":"","meta":null,"order":0}],"mapType":"ground"},{"title":"帖恩吉帖恩神庙-战斗的教导","description":"***位置***：就在平地上有眼睛就能看到！\n\n***技巧***：教你丢武器，建议用长矛丢比较容易丢到\n\n***掉落***：这个神庙就一个宝箱\n1. 宝箱：左纳尼乌姆之枪","longitude":-0.70730284344955,"latitude":0.62239786775174,"tags":[],"media":[{"id":282,"title":"","file_name":"","attribution":"","url":"https://img.caimogu.cc/data/attachment/editor/2023/05/17/c7ff6d925a71e5ecd7b3a254acf90bb4.jpeg","type":"image","mine_type":"","meta":null,"order":0},{"id":165,"title":"","file_name":"","attribution":"","url":"//player.bilibili.com/player.html?aid=271054239&cid=1126255009&page=13","type":"bilibili","mine_type":"","meta":null,"order":0}],"mapType":"ground"},{"title":"马亚奇诺乌神庙-固定之物","description":"马亚奇诺乌神庙只有一个宝箱\n1. 宝箱掉落：2级精力药水\n\n\n直接弓箭绑个炸弹花炸就行！","longitude":-0.75381369244812,"latitude":0.63982044046995,"tags":[],"media":[{"id":261,"title":"","file_name":"","attribution":"","url":"https://img.caimogu.cc/data/attachment/editor/2023/05/17/fc1b5c592e4db0699ddc79640042e53b.jpeg","type":"image","mine_type":"","meta":null,"order":0},{"id":260,"title":"","file_name":"","attribution":"","url":"//player.bilibili.com/player.html?aid=313615130&cid=1126596442&page=1","type":"bilibili","mine_type":"","meta":null,"order":0}],"mapType":"ground"},{"title":"兹兹乌每神庙-以桩引路","description":"神庙只有1个宝箱\n1. 宝箱掉落：木箭 x 5","longitude":-0.80506982522877,"latitude":0.60476998309535,"tags":[],"media":[{"id":15,"title":"","file_name":"","attribution":"","url":"//player.bilibili.com/player.html?aid=528548790&cid=1126845659&page=10","type":"bilibili","mine_type":"","meta":null,"order":0}],"mapType":"ground"},{"title":"里欧高可神庙-力量传递","description":"神庙只有1个宝箱\n1. 宝箱掉落：魔像之刚弓","longitude":-0.80688241905622,"latitude":0.5852422367321,"tags":[],"media":[{"id":143,"title":"","file_name":"","attribution":"","url":"//player.bilibili.com/player.html?aid=271054239&cid=1126556715&page=55","type":"bilibili","mine_type":"","meta":null,"order":0}],"mapType":"ground"},{"title":"巧克高尼神庙","description":"天地之圆\n1. 宝箱：1级生命药水","longitude":-0.75375322288889,"latitude":0.59064928541264,"tags":[],"media":[{"id":144,"title":"","file_name":"","attribution":"","url":"//player.bilibili.com/player.html?aid=271054239&cid=1126570474&page=57","type":"bilibili","mine_type":"","meta":null,"order":0}],"mapType":"ground"},{"title":"塔达罗克恩神庙-水与火","description":"神庙只有1个宝箱\n1. 宝箱掉落：左纳尼乌姆之坚盾","longitude":-0.78036073631762,"latitude":0.54498960267766,"tags":[],"media":[{"id":145,"title":"","file_name":"","attribution":"","url":"//player.bilibili.com/player.html?aid=271054239&cid=1126577383&page=58","type":"bilibili","mine_type":"","meta":null,"order":0}],"mapType":"ground"},{"title":"斯阿里瓦卡神庙","description":"劳鲁的祝福\n1. 宝箱：大容量电池","longitude":-0.88474053109238,"latitude":0.57513436425251,"tags":[],"media":[],"mapType":"ground"},{"title":"拉卡克达吉托神庙","description":"劳鲁的祝福\n1. 宝箱：左纳尼乌姆之刚大剑","longitude":-0.84914804161528,"latitude":0.56948868326299,"tags":[],"media":[],"mapType":"ground"},{"title":"兹拉卡米卡神庙-隐藏的铁","description":"神庙只有1个宝箱\n1. 宝箱掉落：左纳尼乌姆之硬盾","longitude":-0.89369360717376,"latitude":0.54118668393659,"tags":[],"media":[],"mapType":"ground"},{"title":"马亚塔塔神庙-滑行之物","description":"神庙只有1个宝箱\n1. 宝箱掉落：木箭 x10","longitude":-0.93952719482058,"latitude":0.52178978300589,"tags":[],"media":[{"id":222,"title":"","file_name":"","attribution":"","url":"//player.bilibili.com/player.html?aid=528548790&cid=1125769896&page=70","type":"bilibili","mine_type":"","meta":null,"order":0}],"mapType":"ground"},{"title":"马亚里伊纳神庙","description":"劳鲁的祝福\n1. 宝箱：红宝石","longitude":-0.36871800385643,"latitude":0.43428770035462,"tags":[],"media":[{"id":233,"title":"","file_name":"","attribution":"","url":"//player.bilibili.com/player.html?aid=528548790&cid=1125770990&page=81","type":"bilibili","mine_type":"","meta":null,"order":0}],"mapType":"ground"},{"title":"马欧伊凯斯卡神庙","description":"劳鲁的祝福\n1. 宝箱：钻石","longitude":-0.53898272914404,"latitude":0.71322340104251,"tags":[],"media":[{"id":171,"title":"","file_name":"","attribution":"","url":"//player.bilibili.com/player.html?aid=271054239&cid=1126279027&page=22","type":"bilibili","mine_type":"","meta":null,"order":0}],"mapType":"ground"},{"title":"乌萨诸马神庙","description":"劳鲁的祝福\n1. 宝箱：左纳尼乌姆之强枪","longitude":-0.85556482672612,"latitude":0.63940756071332,"tags":[],"media":[{"id":141,"title":"","file_name":"","attribution":"","url":"//player.bilibili.com/player.html?aid=271054239&cid=1126541877&page=53","type":"bilibili","mine_type":"","meta":null,"order":0}],"mapType":"ground"},{"title":"索纳帕诺神庙","description":"","longitude":-0.84200357794651,"latitude":0.67725639507593,"tags":[],"media":[{"id":142,"title":"","file_name":"","attribution":"","url":"//player.bilibili.com/player.html?aid=271054239&cid=1126549704&page=54","type":"bilibili","mine_type":"","meta":null,"order":0}],"mapType":"ground"},{"title":"斯斯亚伊神庙-飞驰之物","description":"神庙只有1个宝箱\n1. 宝箱掉落：木箭 x 5","longitude":-0.75952028630988,"latitude":0.67133448766234,"tags":[],"media":[],"mapType":"ground"},{"title":"吉欧希尼欧神庙-巧穿迷墙","description":"这神庙只有一个宝箱\n1. 宝箱：2级速速药水\n\n***注意点***\n\n就最后一个形状难对一点，按我截图那样就行","longitude":-0.71954204848709,"latitude":0.67539701316439,"tags":[],"media":[{"id":270,"title":"","file_name":"","attribution":"","url":"https://img.caimogu.cc/data/attachment/editor/2023/05/17/18acaee56e52d74abb55a8a524306f97.jpeg","type":"image","mine_type":"","meta":null,"order":0}],"mapType":"ground"},{"title":"瓦欧欧萨神庙-杠杆之力","description":"##### 进入方式\n从利利特特湖西边的洞窟进入 \n\n##### 宝箱掉落\n1. 宝箱掉落：2级耐寒药水\n\n白鸟指引的洞窟进入，早上6点，站在最高处看到影子与白鸟重合处","longitude":-0.9952211688732,"latitude":0.84456655910574,"tags":[],"media":[{"id":84,"title":"","file_name":"","attribution":"","url":"//player.bilibili.com/player.html?aid=698570843&cid=1128910020&page=1","type":"bilibili","mine_type":"","meta":null,"order":0}],"mapType":"ground"},{"title":"纳裘亚哈神庙","description":"倒流之力\n1. 宝箱：木箭 x10","longitude":-0.67514631158446,"latitude":0.58123353592819,"tags":[],"media":[{"id":7,"title":"","file_name":"","attribution":"","url":"//player.bilibili.com/player.html?aid=271054239&cid=1126220073&page=5","type":"bilibili","mine_type":"","meta":null,"order":0}],"mapType":"sky"},{"title":"伊恩伊萨神庙","description":"组合之力\n1. 宝箱：小钥匙  \n2. 宝箱2：木箭 x 5\n\n3. ***注意点***\n这个神殿在钥匙门前面有一个柱子打碎后还有一个箱子不要忘记拿。\n4. 终点前面的怪打死之后，掉落【魔像之弓】【队长魔像的角】，附近平台还有【火焰果】。","longitude":-0.70252630120814,"latitude":0.59384998373554,"tags":[],"media":[{"id":20,"title":"","file_name":"","attribution":"","url":"//player.bilibili.com/player.html?aid=528548790&cid=1127182692&page=4","type":"bilibili","mine_type":"","meta":null,"order":0},{"id":19,"title":"","file_name":"","attribution":"","url":"https://img.caimogu.cc/data/cache/editor/2023/05/12/be8452606cd537e5f2ddd7f74a5edac0.jpeg","type":"image","mine_type":"","meta":null,"order":0}],"mapType":"sky"},{"title":"马亚乌每奇萨神庙-跳跃之力","description":"神庙只有1个宝箱\n1. 宝箱掉落：木箭 x10","longitude":-0.9157422825254,"latitude":0.92341060407252,"tags":[],"media":[{"id":201,"title":"","file_name":"","attribution":"","url":"//player.bilibili.com/player.html?aid=528548790&cid=1126183304&page=131","type":"bilibili","mine_type":"","meta":null,"order":0}],"mapType":"sky"},{"title":"卡哈塔纳乌每神庙","description":"劳鲁的祝福\n1. 宝箱：大的左纳乌能源","longitude":-0.94051431095491,"latitude":0.95015096919199,"tags":[],"media":[{"id":200,"title":"","file_name":"","attribution":"","url":"//player.bilibili.com/player.html?aid=528548790&cid=1126183242&page=128","type":"bilibili","mine_type":"","meta":null,"order":0}],"mapType":"sky"},{"title":"伊乔欧神庙-不止防守","description":"神庙只有1个宝箱\n1. 宝箱掉落：木箭 x 5","longitude":-0.98170840244725,"latitude":0.89683837923673,"tags":[],"media":[{"id":202,"title":"","file_name":"","attribution":"","url":"//player.bilibili.com/player.html?aid=528548790&cid=1126183442&page=132","type":"bilibili","mine_type":"","meta":null,"order":0}],"mapType":"sky"},{"title":"帖恩贝扎伊神庙-下落速度","description":"神庙只有1个宝箱\n1. 宝箱掉落：大的左纳乌能源","longitude":-0.77284510556612,"latitude":0.95798352952514,"tags":[],"media":[{"id":204,"title":"","file_name":"","attribution":"","url":"//player.bilibili.com/player.html?aid=528548790&cid=1126183380&page=133","type":"bilibili","mine_type":"","meta":null,"order":0}],"mapType":"sky"},{"title":"马亚米伊神庙","description":"劳鲁的祝福\n1. 宝箱：魔法杖","longitude":-0.67886517951627,"latitude":0.90646571755762,"tags":[],"media":[{"id":205,"title":"","file_name":"","attribution":"","url":"//player.bilibili.com/player.html?aid=528548790&cid=1126187891&page=153","type":"bilibili","mine_type":"","meta":null,"order":0}],"mapType":"sky"},{"title":"塔尼诺乌达神庙","description":"劳鲁的祝福只有一个宝箱\n1. 宝箱：黄玉","longitude":-0.83288463933442,"latitude":0.94872793787196,"tags":[],"media":[{"id":203,"title":"","file_name":"","attribution":"","url":"//player.bilibili.com/player.html?aid=528548790&cid=1126183135&page=129","type":"bilibili","mine_type":"","meta":null,"order":0}],"mapType":"sky"},{"title":"希摩希瓦卡神庙","description":"孑然一身之战 黑暗\n1. 宝箱：3级光亮药水","longitude":-0.6916542530488,"latitude":0.84562501722911,"tags":[],"media":[{"id":174,"title":"","file_name":"","attribution":"","url":"//player.bilibili.com/player.html?aid=271054239&cid=1126297638&page=27","type":"bilibili","mine_type":"","meta":null,"order":0}],"mapType":"sky"},{"title":"卡达乌纳里神庙-流水指引之路","description":"神庙只有1个宝箱\n1. 宝箱掉落：魔像之强弓","longitude":-0.56732156767711,"latitude":0.79000947524736,"tags":[],"media":[{"id":206,"title":"","file_name":"","attribution":"","url":"//player.bilibili.com/player.html?aid=528548790&cid=1126185904&page=141","type":"bilibili","mine_type":"","meta":null,"order":0}],"mapType":"sky"},{"title":"吉鲁塔古马奇神庙-飞天之物","description":"神庙只有1个宝箱\n1. 宝箱掉落：大的左纳尼乌姆","longitude":-0.49290506556812,"latitude":0.7419775389908,"tags":[],"media":[{"id":207,"title":"","file_name":"","attribution":"","url":"//player.bilibili.com/player.html?aid=528548790&cid=1126186218&page=143","type":"bilibili","mine_type":"","meta":null,"order":0}],"mapType":"sky"},{"title":"伊高修恩神庙","description":"浮游之水\n1. 宝箱：大的左纳乌能源","longitude":-0.45230714991811,"latitude":0.75098899639602,"tags":[],"media":[{"id":208,"title":"","file_name":"","attribution":"","url":"//player.bilibili.com/player.html?aid=528548790&cid=1126186345&page=144","type":"bilibili","mine_type":"","meta":null,"order":0}],"mapType":"sky"},{"title":"纳塔卡卡神庙","description":"劳鲁的祝福\n1. 宝箱：能量药水","longitude":-0.43854954849195,"latitude":0.81010962138041,"tags":[],"media":[{"id":209,"title":"","file_name":"","attribution":"","url":"//player.bilibili.com/player.html?aid=528548790&cid=1126185011&page=139","type":"bilibili","mine_type":"","meta":null,"order":0}],"mapType":"sky"},{"title":"基卡克恩神庙","description":"劳鲁的祝福\n1. 宝箱：红宝石","longitude":-0.37859764134444,"latitude":0.85976506029196,"tags":[],"media":[{"id":219,"title":"","file_name":"","attribution":"","url":"//player.bilibili.com/player.html?aid=528548790&cid=1126184759&page=138","type":"bilibili","mine_type":"","meta":null,"order":0}],"mapType":"sky"},{"title":"摩基萨里神庙-纵身之勇","description":"神庙只有1个宝箱\n1. 宝箱掉落：左纳尼乌姆之坚盾","longitude":-0.36729927167687,"latitude":0.95550918386347,"tags":[],"media":[{"id":220,"title":"","file_name":"","attribution":"","url":"//player.bilibili.com/player.html?aid=528548790&cid=1126184978&page=140","type":"bilibili","mine_type":"","meta":null,"order":0}],"mapType":"sky"},{"title":"马亚纳希神庙","description":"以冰引路\n1. 宝箱：左纳尼乌姆之坚盾","longitude":-0.37058172852343,"latitude":0.63513469680137,"tags":[],"media":[{"id":225,"title":"","file_name":"","attribution":"","url":"//player.bilibili.com/player.html?aid=528548790&cid=1126186182&page=145","type":"bilibili","mine_type":"","meta":null,"order":0}],"mapType":"sky"},{"title":"希哈乔高乌神庙","description":"劳鲁的祝福\n1. 宝箱：钻石","longitude":-0.37547407776623,"latitude":0.64234402661647,"tags":[],"media":[{"id":224,"title":"","file_name":"","attribution":"","url":"//player.bilibili.com/player.html?aid=528548790&cid=1126186122&page=142","type":"bilibili","mine_type":"","meta":null,"order":0}],"mapType":"sky"},{"title":"乔希乌神庙","description":"劳鲁的祝福\n1. 宝箱：大的左纳乌能源","longitude":-0.57664630386699,"latitude":0.61640733418115,"tags":[],"media":[{"id":226,"title":"","file_name":"","attribution":"","url":"//player.bilibili.com/player.html?aid=528548790&cid=1126186586&page=149","type":"bilibili","mine_type":"","meta":null,"order":0}],"mapType":"sky"},{"title":"亚恩萨米诺神庙","description":"孑然一身之战 重力\n1. 宝箱：大的左纳尼乌姆","longitude":-0.53370972299214,"latitude":0.57448338540726,"tags":[],"media":[{"id":227,"title":"","file_name":"","attribution":"","url":"//player.bilibili.com/player.html?aid=528548790&cid=1126186647&page=146","type":"bilibili","mine_type":"","meta":null,"order":0}],"mapType":"sky"},{"title":"克马马伊诺神庙","description":"劳鲁的祝福\n1. 宝箱：左纳尼乌姆之弓","longitude":-0.49714505900542,"latitude":0.49755598189594,"tags":[],"media":[{"id":199,"title":"","file_name":"","attribution":"","url":"//player.bilibili.com/player.html?aid=741059644&cid=1126540913&page=12","type":"bilibili","mine_type":"","meta":null,"order":0}],"mapType":"sky"},{"title":"乔克乌希尼神庙","description":"孑然一身之战 通电\n1. 宝箱：3级耐电药水","longitude":-0.62600795495277,"latitude":0.46197020758815,"tags":[],"media":[{"id":228,"title":"","file_name":"","attribution":"","url":"//player.bilibili.com/player.html?aid=528548790&cid=1126446672&page=150","type":"bilibili","mine_type":"","meta":null,"order":0}],"mapType":"sky"},{"title":"乔克乌神庙","description":"劳鲁的祝福\n1. 宝箱：钻石","longitude":-0.60409861723065,"latitude":0.46301319519101,"tags":[],"media":[{"id":196,"title":"","file_name":"","attribution":"","url":"//player.bilibili.com/player.html?aid=741059644&cid=1126541206&page=28","type":"bilibili","mine_type":"","meta":null,"order":0}],"mapType":"sky"},{"title":"塔乌恩喜悠神庙-弓箭的精髓","description":"##### 进入神庙的方式\n从拉布拉山的鸟望塔飞过来就行，要过一个勇气试炼，会送一件衣服，具体位置可以看截图\n##### 神庙宝箱数量1\n1. 宝箱：魔像之强弓","longitude":-0.87622945639382,"latitude":0.76288175020238,"tags":[],"media":[{"id":213,"title":"","file_name":"","attribution":"","url":"//player.bilibili.com/player.html?aid=528548790&cid=1126183491&page=134","type":"bilibili","mine_type":"","meta":null,"order":0},{"id":64,"title":"","file_name":"","attribution":"","url":"https://img.caimogu.cc/data/attachment/editor/2023/05/14/e9ae088d39734e080021f26da7e10ea7.jpeg","type":"image","mine_type":"","meta":null,"order":0}],"mapType":"sky"},{"title":"嘎阿喜萨萨神庙","description":"劳鲁的祝福\n1. 宝箱：星星碎片","longitude":-0.96272877221227,"latitude":0.77262976253124,"tags":[],"media":[{"id":214,"title":"","file_name":"","attribution":"","url":"//player.bilibili.com/player.html?aid=528548790&cid=1126183241&page=127","type":"bilibili","mine_type":"","meta":null,"order":0}],"mapType":"sky"},{"title":"嘎诺萨神庙","description":"劳鲁的祝福\n1. 宝箱：钻石","longitude":-0.94627059376563,"latitude":0.73711379005867,"tags":[],"media":[{"id":215,"title":"","file_name":"","attribution":"","url":"//player.bilibili.com/player.html?aid=528548790&cid=1126183303&page=130","type":"bilibili","mine_type":"","meta":null,"order":0}],"mapType":"sky"},{"title":"马亚希阿拉神庙","description":"劳鲁的祝福\n1. 宝箱：星星碎片长杖","longitude":-0.95910662425982,"latitude":0.67998369983648,"tags":[],"media":[{"id":216,"title":"","file_name":"","attribution":"","url":"//player.bilibili.com/player.html?aid=528548790&cid=1126184068&page=136","type":"bilibili","mine_type":"","meta":null,"order":0}],"mapType":"sky"},{"title":"希亚摩兹希神庙-灯火黯然","description":"神庙只有1个宝箱\n1. 宝箱掉落：魔像之弓","longitude":-0.83249866944448,"latitude":0.46545990455321,"tags":[],"media":[{"id":197,"title":"","file_name":"","attribution":"","url":"//player.bilibili.com/player.html?aid=741059644&cid=1126540943&page=16","type":"bilibili","mine_type":"","meta":null,"order":0}],"mapType":"sky"},{"title":"拉卡修高神庙-反射之物","description":"这神庙只有一个宝箱\n1. 大的左纳乌能源","longitude":-0.82681306312455,"latitude":0.55051986099593,"tags":[],"media":[{"id":223,"title":"","file_name":"","attribution":"","url":"//player.bilibili.com/player.html?aid=528548790&cid=1126184232&page=137","type":"bilibili","mine_type":"","meta":null,"order":0}],"mapType":"sky"},{"title":"吉诺多卡欧神庙","description":"劳鲁的祝福\n1. 宝箱：钻石","longitude":-0.79374430129164,"latitude":0.59609614727073,"tags":[],"media":[{"id":218,"title":"","file_name":"","attribution":"","url":"//player.bilibili.com/player.html?aid=528548790&cid=1126187985&page=154","type":"bilibili","mine_type":"","meta":null,"order":0}],"mapType":"sky"},{"title":"乌可欧吉希神庙","description":"劳鲁的祝福\n1. 宝箱：左纳尼乌姆之坚盾","longitude":-0.59725576688913,"latitude":0.54682586094445,"tags":[],"media":[{"id":198,"title":"","file_name":"","attribution":"","url":"//player.bilibili.com/player.html?aid=741059644&cid=1126541173&page=23","type":"bilibili","mine_type":"","meta":null,"order":0}],"mapType":"sky"},{"title":"古塔恩巴奇神庙","description":"上升之力！\n1. 宝箱：魔像之弓\n2. 宝箱：手工斧\n3. 注意点：\n这边不用找路上去，直接下面找几棵树砍了拼一个梯子上去就行！\n\n正确的路：绕到后面瀑布边上有条没结冰的攀爬点。","longitude":-0.6530642717706,"latitude":0.60272824687068,"tags":[],"media":[{"id":118,"title":"","file_name":"","attribution":"","url":"//player.bilibili.com/player.html?aid=271054239&cid=1126232501&page=4","type":"bilibili","mine_type":"","meta":null,"order":0},{"id":38,"title":"","file_name":"","attribution":"","url":"https://img.caimogu.cc/data/cache/editor/2023/05/13/ca7ab35f90ff38cc2e737a3db87452c7.jpeg","type":"image","mine_type":"","meta":null,"order":0}],"mapType":"sky"},{"title":"乌可乌侯神庙","description":"创造之力！\n1. 宝箱：琥珀\n\n开局第一个神庙，获取技能【究极手】。\n\n宝箱在进门直走右边墙角。\n\n通关后获得【祝福之光】×1","longitude":-0.68272583007652,"latitude":0.63737885235534,"tags":[],"media":[{"id":252,"title":"","file_name":"","attribution":"","url":"https://img.caimogu.cc/data/original/editor/2023/05/16/b621d46b6313a74d6a236431419e5db0.jpeg","type":"image","mine_type":"","meta":null,"order":0},{"id":117,"title":"","file_name":"","attribution":"","url":"//player.bilibili.com/player.html?aid=271054239&cid=1126229103&page=2","type":"bilibili","mine_type":"","meta":null,"order":0},{"id":116,"title":"","file_name":"","attribution":"","url":"//player.bilibili.com/player.html?aid=271054239&cid=1126229103&page=2","type":"bilibili","mine_type":"","meta":null,"order":0}],"mapType":"sky"}]},"雷之神殿":{"title":"雷之神殿","id":"雷之神殿","icon":"thunder_temple","locations":[{"title":"雷之神殿","description":"","longitude":-1.0281880518209,"latitude":0.441771966826,"tags":[],"media":[],"mapType":"ground"}]},"鸟望台":{"title":"鸟望台","id":"鸟望台","icon":"bird_watching_platform","locations":[{"title":"格鲁德峡谷 鸟望台","description":"","longitude":-0.87824001242222,"latitude":0.54464068822034,"tags":[],"media":[],"mapType":"ground"},{"title":"卡尔加岭 鸟望台","description":"卡尔加岭 鸟望台","longitude":-0.96956473536255,"latitude":0.87199802236944,"tags":[],"media":[],"mapType":"ground"},{"title":"拉布拉山 鸟望台","description":"","longitude":-0.83991910577171,"latitude":0.79169619961692,"tags":[],"media":[],"mapType":"ground"},{"title":"德依布朗遗迹 鸟望台","description":"","longitude":-0.67774226061167,"latitude":0.92914662105112,"tags":[],"media":[],"mapType":"ground"},{"title":"奥尔汀峡谷 鸟望台","description":"","longitude":-0.58418315150513,"latitude":0.78792249407857,"tags":[],"media":[],"mapType":"ground"},{"title":"乌尔利山 鸟望台","description":"","longitude":-0.4504589388593,"latitude":0.84808367215022,"tags":[],"media":[],"mapType":"ground"},{"title":"卓拉台地 鸟望台","description":"门口的淤泥可以用水之果+弓箭射干净。","longitude":-0.49603358065764,"latitude":0.74385326788385,"tags":[],"media":[],"mapType":"ground"},{"title":"拉聂尔山 鸟望台","description":"","longitude":-0.42514890650241,"latitude":0.60743597751079,"tags":[],"media":[],"mapType":"ground"},{"title":"拉贝拉湿地带 鸟望台","description":"攻略可以直接点击看视频，是UP波克楠楠的哈！","longitude":-0.52811152064319,"latitude":0.5036171839709,"tags":[],"media":[{"id":45,"title":"","file_name":"","attribution":"","url":"//player.bilibili.com/player.html?aid=528612569&cid=1128230755&page=1","type":"bilibili","mine_type":"","meta":null,"order":0}],"mapType":"ground"},{"title":"海拉鲁平原 鸟望台","description":"用河边的木板做一个小船过去，记得要带风扇，用风扇发动过去就行","longitude":-0.75761953597271,"latitude":0.62940503473065,"tags":[],"media":[],"mapType":"ground"},{"title":"监视堡垒 鸟望台","description":"监视堡垒 鸟望台","longitude":-0.72387329281824,"latitude":0.71256304658667,"tags":[],"media":[],"mapType":"ground"},{"title":"茨茨齐齐雪原鸟望台","description":"可以从旁边走，面朝鸟望塔往左边走，然后往上爬一点后用升天术上去！然后找桥那边把桥拼起来，大概截图那样就行！","longitude":-0.86948140357845,"latitude":0.92243337124464,"tags":[],"media":[{"id":73,"title":"","file_name":"","attribution":"","url":"https://img.caimogu.cc/data/attachment/editor/2023/05/15/c0bbd644d1865eed6b19fca52217531e.jpeg","type":"image","mine_type":"","meta":null,"order":0}],"mapType":"ground"},{"title":"泡泡拉高地 鸟望台","description":"***位置***：附近有一些石头是从天上掉下来的，可以直接站到石头上然后用时光倒流飞到天上，再滑翔过去！\n\n***备注***：需要去旁边井（泡泡拉高地北边的井）里救一个NPC才能开启","longitude":-0.65881104560975,"latitude":0.54859676255106,"tags":[],"media":[{"id":296,"title":"","file_name":"","attribution":"","url":"https://img.caimogu.cc/data/attachment/editor/2023/05/17/ba60155cdbc3c4336c6972a0eb45ff38.jpeg","type":"image","mine_type":"","meta":null,"order":0}],"mapType":"ground"},{"title":"格鲁德高地 鸟望台","description":"","longitude":-0.9879846125711,"latitude":0.60782806631124,"tags":[],"media":[],"mapType":"ground"},{"title":"撒哈斯拉平原 鸟望台","description":"外面有个鸟站着，说门打不开。\n\n然后提示你下方有个洞窟。","longitude":-0.60585367709859,"latitude":0.61756941544257,"tags":[],"media":[],"mapType":"ground"}]},"小型地点":{"title":"小型地点","id":"小型地点","icon":"small_location","locations":[{"title":"卢比","description":"","longitude":-0.69652960002534,"latitude":0.68663411079919,"tags":[],"media":[],"mapType":"ground"},{"title":"备忘录：跳斩","description":"有个小凳子，上面有个备忘录。","longitude":-0.72602089950499,"latitude":0.678303492479,"tags":[],"media":[{"id":287,"title":"","file_name":"","attribution":"","url":"https://img.caimogu.cc/data/attachment/editor/2023/05/17/9cca2a16eac3ae2fd0ee770d4a23fa68.png","type":"image","mine_type":"","meta":null,"order":0}],"mapType":"ground"},{"title":"卢比","description":"","longitude":-0.64076872868321,"latitude":0.70274220522397,"tags":[],"media":[],"mapType":"ground"},{"title":"卢比","description":"","longitude":-0.60399490466918,"latitude":0.61929001669681,"tags":[],"media":[],"mapType":"ground"},{"title":"备忘录：发光材料","description":"备忘录在井里。","longitude":-0.65895504752586,"latitude":0.5429520937324,"tags":[],"media":[],"mapType":"ground"},{"title":"石碑：- 卓拉族的知识 第1章-","description":"与水共存的卓拉领地","longitude":-0.49549548060259,"latitude":0.70788303647316,"tags":[],"media":[],"mapType":"ground"},{"title":"石碑：- 卓拉族的知识 外传其1 -","description":"水流与枪术","longitude":-0.43382227397592,"latitude":0.74097883411356,"tags":[],"media":[],"mapType":"ground"},{"title":"烹饪锅","description":"临时用这个当标点，后面再改图标。","longitude":-0.69248712071709,"latitude":0.58732293323889,"tags":[],"media":[],"mapType":"sky"},{"title":"烹饪锅","description":"","longitude":-0.69451452521204,"latitude":0.61844811492843,"tags":[],"media":[],"mapType":"sky"},{"title":"去瀑布底下宝箱的裂缝","description":"","longitude":-0.6967993568621,"latitude":0.59504633731591,"tags":[],"media":[],"mapType":"sky"},{"title":"烹饪锅","description":"","longitude":-0.67196910348841,"latitude":0.59151234052504,"tags":[],"media":[],"mapType":"sky"},{"title":"烹饪锅","description":"","longitude":-0.6603500659817,"latitude":0.58580490099857,"tags":[],"media":[],"mapType":"sky"},{"title":"烹饪锅","description":"","longitude":-0.65592978552513,"latitude":0.59069699239238,"tags":[],"media":[],"mapType":"sky"},{"title":"烹饪锅","description":"","longitude":-0.65180991247794,"latitude":0.5990221204593,"tags":[],"media":[],"mapType":"sky"},{"title":"烹饪锅","description":"","longitude":-0.64576506417833,"latitude":0.60244953564978,"tags":[],"media":[],"mapType":"sky"},{"title":"烹饪锅","description":"","longitude":-0.64070105355793,"latitude":0.6054105299052,"tags":[],"media":[],"mapType":"sky"},{"title":"烹饪锅","description":"","longitude":-0.6586280426805,"latitude":0.60343111374452,"tags":[],"media":[],"mapType":"sky"},{"title":"烹饪锅","description":"","longitude":-0.65287738655314,"latitude":0.61445973428961,"tags":[],"media":[],"mapType":"sky"},{"title":"关键物品：电池","description":"和岸边的魔像对话，如果这时候你身上没有任何电池，那么他就会给你一个电池。","longitude":-0.65699725959769,"latitude":0.60480432842472,"tags":[],"media":[],"mapType":"sky"},{"title":"关键物品：普尔亚平板","description":"塞尔达留给你的平板。\n\n（你一定很好奇那个不是被抓就是掉落深渊甚至还化成光消失的塞尔达是怎么把平板留给你的，在通关时之神殿之后，你会得到答案）","longitude":-0.6705155930328,"latitude":0.60819445067654,"tags":[],"media":[],"mapType":"sky"},{"title":"关键物品：电池","description":"在这里通关神庙后，会有个魔像给你送来电池。","longitude":-0.70115023785362,"latitude":0.59360804840124,"tags":[],"media":[],"mapType":"sky"},{"title":"传送阵","description":"在这里做完任务会得到蓝图功能和一个传送点","longitude":-0.76217302637519,"latitude":0.56143585176432,"tags":[],"media":[],"mapType":"underground"}]},"大妖精之泉":{"title":"大妖精之泉","id":"大妖精之泉","icon":"spring_of_great_fairy","locations":[{"title":"大妖精弥佳","description":"","longitude":-0.80744028657358,"latitude":0.91762530849543,"tags":[],"media":[],"mapType":"ground"},{"title":"大妖精蒂拉","description":"","longitude":-0.63640097717226,"latitude":0.80227470403565,"tags":[],"media":[],"mapType":"ground"},{"title":"大妖精可秋拉","description":"","longitude":-0.57489927666117,"latitude":0.5450925946965,"tags":[],"media":[],"mapType":"ground"},{"title":"大妖精 西莎","description":"","longitude":-0.81442200018731,"latitude":0.61358547933919,"tags":[],"media":[],"mapType":"ground"}]},"驿站":{"title":"驿站","id":"驿站","icon":"stage","locations":[{"title":"山麓驿站","description":"","longitude":-0.5140352237346,"latitude":0.7845049692033,"tags":[],"media":[],"mapType":"ground"},{"title":"南阿卡莱驿站","description":"","longitude":-0.47544626268567,"latitude":0.82432325513854,"tags":[],"media":[],"mapType":"ground"},{"title":"森林驿站","description":"","longitude":-0.62545389546693,"latitude":0.78450270133185,"tags":[],"media":[],"mapType":"ground"},{"title":"湿地驿站","description":"","longitude":-0.63833108658324,"latitude":0.68949985424562,"tags":[],"media":[],"mapType":"ground"},{"title":"东阿卡莱驿站","description":"","longitude":-0.39754377475563,"latitude":0.90013412978467,"tags":[],"media":[],"mapType":"ground"},{"title":"河畔驿站","description":"","longitude":-0.67791923066522,"latitude":0.62339951521744,"tags":[],"media":[],"mapType":"ground"},{"title":"双子驿站","description":"","longitude":-0.575617887932,"latitude":0.56354469732696,"tags":[],"media":[],"mapType":"ground"},{"title":"湖畔驿站","description":"","longitude":-0.5902241978886,"latitude":0.44698505474219,"tags":[],"media":[],"mapType":"ground"},{"title":"高原驿站","description":"","longitude":-0.66447131629408,"latitude":0.45385129764361,"tags":[],"media":[],"mapType":"ground"},{"title":"格鲁德峡谷驿站","description":"","longitude":-0.90445303477316,"latitude":0.54131812165279,"tags":[],"media":[],"mapType":"ground"},{"title":"平原外围的驿站","description":"","longitude":-0.80651265723262,"latitude":0.61064554064463,"tags":[],"media":[],"mapType":"ground"},{"title":"新玛丽塔驿站","description":"","longitude":-0.80032047284212,"latitude":0.75388258745789,"tags":[],"media":[],"mapType":"ground"},{"title":"塔邦挞大桥驿站","description":"","longitude":-0.9137302226317,"latitude":0.74178794306283,"tags":[],"media":[],"mapType":"ground"},{"title":"雪原驿站","description":"","longitude":-0.82131024989226,"latitude":0.88768854305026,"tags":[],"media":[],"mapType":"ground"},{"title":"白诘报社(原利特驿站)","description":"**白诘报社(原利特驿站)**","longitude":-0.93698093619219,"latitude":0.82900115508914,"tags":[],"media":[],"mapType":"ground"}]},"马神":{"title":"马神","id":"马神","icon":"horse_god","locations":[{"title":"马泷之泉","description":"秋叶台地和阿卡莱古代研究所之间的峡谷","longitude":-0.39237699563324,"latitude":0.9358514883037,"tags":[],"media":[],"mapType":"ground"}]},"遗迹石碑":{"title":"遗迹石碑","id":"遗迹石碑","icon":"monument"},"残旧的地图的指示地":{"title":"残旧的地图的指示地","id":"残旧的地图的指示地","icon":"indication_of_old_map"},"BOSS战斗平台":{"title":"BOSS战斗平台","id":"BOSS战斗平台","icon":"boss_combat_platform","locations":[{"title":"女神之剑","description":"要找到三座泉水，然后三种龙爪提交，可以拿到前前代神器","longitude":-0.7836896095784,"latitude":0.89196894979963,"tags":[],"media":[],"mapType":"ground"},{"title":"首领波克布林","description":"","longitude":-0.87051420269046,"latitude":0.7319338262777,"tags":[],"media":[],"mapType":"ground"},{"title":"大型左纳尼乌姆矿产","description":"","longitude":-0.79171107249914,"latitude":0.700263246449,"tags":[],"media":[],"mapType":"sky"}]},"左纳乌装置制造机":{"title":"左纳乌装置制造机","id":"左纳乌装置制造机","icon":"zuonawu_device_manufacturing_machine","locations":[{"title":"左纳乌装置","description":"可获得的左纳乌装置：\n风扇机\n小轮胎\n热气球\n大轮胎\n火箭\n操纵杆","longitude":-0.42794951194674,"latitude":0.81441619946287,"tags":[],"media":[],"mapType":"ground"},{"title":"左纳乌装置制造机","description":"桩、大轮胎、弹簧、便携锅、备用电池","longitude":-0.81959225000108,"latitude":0.56625648064436,"tags":[],"media":[],"mapType":"ground"},{"title":"左纳乌装置制造机","description":"热气球、风扇机、大轮胎、不倒翁","longitude":-0.56967168110134,"latitude":0.62393714506425,"tags":[],"media":[],"mapType":"ground"},{"title":"左纳乌制造机","description":"火龙头\n翼\n风扇机\n便携锅","longitude":-0.64734201909744,"latitude":0.61188394278209,"tags":[],"media":[],"mapType":"sky"},{"title":"左纳乌装置制造机","description":"大炮 翼 弹簧 计时炸弹","longitude":-0.57426528590889,"latitude":0.62358837393765,"tags":[],"media":[],"mapType":"sky"},{"title":"制造机","description":"生产 翼，滑橇，风扇，平台车，灯。","longitude":-0.82671423744952,"latitude":0.94592501183271,"tags":[],"media":[],"mapType":"sky"},{"title":"左纳乌装置制造机","description":"生产 追踪平台车，桩，平台车，大炮，魔像的头部","longitude":-0.4319986344475,"latitude":0.8139164949843,"tags":[],"media":[],"mapType":"sky"},{"title":"制造机","description":"生产 **弹簧**，**放水栓**，**光线头**，**操纵杆**","longitude":-0.37726032387843,"latitude":0.64414743625285,"tags":[],"media":[],"mapType":"sky"},{"title":"制造机","description":"生产 **操纵杆**，**小轮胎**，**大炮**，**灯**","longitude":-0.49690176654596,"latitude":0.48963535013741,"tags":[],"media":[],"mapType":"sky"},{"title":"制造机","description":"生产 **追踪平台车**，**光线头**，**火龙头**，**冰龙头**，**计时炸弹**","longitude":-0.53524218114697,"latitude":0.57855271914732,"tags":[],"media":[],"mapType":"sky"},{"title":"制造机","description":"生产 **光线头**，**滑橇**，**镜子**，**操纵杆**，**桩**","longitude":-0.83095206096783,"latitude":0.55685029044707,"tags":[],"media":[],"mapType":"sky"},{"title":"制造机","description":"生产 **计时炸弹**，**小轮胎**，**灯**，**火箭**","longitude":-0.79073888791916,"latitude":0.58835920664899,"tags":[],"media":[],"mapType":"sky"},{"title":"制造机","description":"生产 **翼**，**冰龙头**，**小轮胎**，**镜子**","longitude":-0.95232979178189,"latitude":0.7310961252489,"tags":[],"media":[],"mapType":"sky"},{"title":"制造机","description":"生产 **热气球**，**风扇机**，**便携锅**，**计时炸弹**","longitude":-0.87360685112534,"latitude":0.75901520547318,"tags":[],"media":[],"mapType":"sky"},{"title":"制造机","description":"生产 **雷龙头**，**灯**，**操纵杆**，**追踪平台车**","longitude":-0.67118099433534,"latitude":0.90647611262442,"tags":[],"media":[],"mapType":"sky"},{"title":"制造机","description":"生产 **灯**，**火龙头**，**备用电池**，**魔像的头部**","longitude":-0.68745583283138,"latitude":0.84608688028572,"tags":[],"media":[],"mapType":"sky"},{"title":"制造机","description":"生产 **大轮胎**，**放水栓**，**备用电池**，**风扇机**","longitude":-0.56029378164493,"latitude":0.7908514399676,"tags":[],"media":[],"mapType":"sky"},{"title":"制造机","description":"生产 **风扇机**，**浮游石**，**翼**，**备用电池**，**不倒翁**","longitude":-0.45557041536927,"latitude":0.74879978600696,"tags":[],"media":[],"mapType":"sky"},{"title":"左纳乌制造机","description":"生产 **镜子**，**热气球**，**弹簧**，**翼**，**浮游石**","longitude":-0.96428595572053,"latitude":0.77824760946297,"tags":[],"media":[],"mapType":"sky"},{"title":"左纳乌制造机","description":"光线头\n\n滑撬\n\n镜子\n\n操纵杆\n\n桩","longitude":-0.8307933356518,"latitude":0.55686081640049,"tags":[],"media":[],"mapType":"sky"},{"title":"左纳乌制造机","description":"火龙头\n\n风扇机\n\n便携锅","longitude":-0.67200206959399,"latitude":0.58105288250636,"tags":[],"media":[],"mapType":"sky"},{"title":"左纳乌制造机","description":"是不是位置重复了","longitude":-0.57404849688282,"latitude":0.62305564827969,"tags":[],"media":[],"mapType":"sky"},{"title":"左纳乌制造机","description":"魔像的头部\n\n平台车\n\n热气球\n\n不倒翁\n\n放水栓","longitude":-0.60565258710645,"latitude":0.54803197812146,"tags":[],"media":[],"mapType":"sky"},{"title":"左纳乌制造机","description":"翼\n\n平台车\n\n风扇机\n\n操纵杆","longitude":-0.60304641639897,"latitude":0.47013612568293,"tags":[],"media":[],"mapType":"sky"},{"title":"左纳乌制造机","description":"雷龙头\n\n风扇机\n\n便携锅\n\n备用电池","longitude":-0.62344940943365,"latitude":0.46280713808244,"tags":[],"media":[],"mapType":"sky"},{"title":"左纳乌制造机","description":"冰龙头\n\n翼\n\n备用电池\n\n镜子","longitude":-0.36557187469134,"latitude":0.62868288589571,"tags":[],"media":[],"mapType":"sky"},{"title":"左纳乌制造机","description":"平台车\n\n翼\n\n风扇机\n\n光线头","longitude":-0.4925312158361,"latitude":0.7408059450384,"tags":[],"media":[],"mapType":"sky"},{"title":"左纳乌制造机","description":"大轮胎\n\n放水栓\n\n备用电池\n\n风扇机","longitude":-0.55973111795441,"latitude":0.79086378754958,"tags":[],"media":[],"mapType":"sky"},{"title":"左纳乌制造机","description":"火箭\n\n火龙头\n\n便携锅\n\n计时炸弹","longitude":-0.97769465962966,"latitude":0.90250553664274,"tags":[],"media":[],"mapType":"sky"},{"title":"左纳乌制造机","description":"生产 **桩**，**雷龙头**，**滑橇**，**不倒翁**，**冰龙头**","longitude":-0.95419698419423,"latitude":0.67701366473442,"tags":[],"media":[],"mapType":"sky"},{"title":"左纳乌装置制造机","description":"魔像的头部、平台车、热气球、不倒翁、放水栓","longitude":-0.60556504735558,"latitude":0.54776601791943,"tags":[],"media":[],"mapType":"sky"},{"title":"左纳乌制造机","description":"生产 大轮胎、操纵杆、便携锅、备用电池","longitude":-0.54392832998948,"latitude":0.89278141507842,"tags":[],"media":[],"mapType":"underground"}]},"炼制魔像":{"title":"炼制魔像","id":"炼制魔像","icon":"refining_magic_statue","locations":[{"title":"炼制魔像","description":"在采矿的洞窟里面。","longitude":-0.66924995964658,"latitude":0.58153662571756,"tags":[],"media":[],"mapType":"sky"},{"title":"炼制魔像","description":"","longitude":-0.76484740571405,"latitude":0.56249662862663,"tags":[],"media":[],"mapType":"underground"},{"title":"炼制魔像","description":"","longitude":-0.57549343040492,"latitude":0.61634963272829,"tags":[],"media":[],"mapType":"underground"}]},"电池制造机":{"title":"电池制造机","id":"电池制造机","icon":"battery_manufacturing_machine","locations":[{"title":"电池制造机","description":"","longitude":-0.71827618439477,"latitude":0.71661061008962,"tags":[],"media":[],"mapType":"ground"},{"title":"电池制造机","description":"纳裘亚哈神庙对面","longitude":-0.67749754476799,"latitude":0.58389114312379,"tags":[],"media":[],"mapType":"sky"}]},"魔人像":{"title":"魔人像","id":"魔人像","icon":"demon_figure","locations":[{"title":"魔人像","description":"","longitude":-0.72078152236836,"latitude":0.71346885332439,"tags":[],"media":[],"mapType":"ground"},{"title":"魔人像","description":"","longitude":-0.42653785109383,"latitude":0.60686160784212,"tags":[],"media":[],"mapType":"underground"},{"title":"魔人像","description":"地下，力量之源泉附近","longitude":-0.4349018847964,"latitude":0.89023814775668,"tags":[],"media":[],"mapType":"underground"},{"title":"平原魔人像","description":"","longitude":-0.66958041106886,"latitude":0.64432225087512,"tags":[],"media":[],"mapType":"underground"},{"title":"魔人像","description":"","longitude":-0.77748806531608,"latitude":0.89501514891204,"tags":[],"media":[],"mapType":"underground"},{"title":"魔人像","description":"","longitude":-0.63848498328153,"latitude":0.52921998374862,"tags":[],"media":[],"mapType":"underground"},{"title":"魔人像","description":"","longitude":-0.75810550793233,"latitude":0.56469630831388,"tags":[],"media":[],"mapType":"underground"}]},"呀哈哈":{"title":"呀哈哈","id":"呀哈哈","icon":"yahaha","locations":[{"title":"呀哈哈","description":"","longitude":-1.0218895866096,"latitude":0.9677480440369,"tags":[],"media":[],"mapType":"ground"},{"title":"呀哈哈","description":"","longitude":-0.89006517521699,"latitude":0.93581209804873,"tags":[],"media":[],"mapType":"ground"},{"title":"隐藏呀哈哈2","description":"","longitude":-0.99163749899137,"latitude":0.96386612144352,"tags":[],"media":[],"mapType":"ground"},{"title":"隐藏呀哈哈","description":"","longitude":-0.98914840902589,"latitude":0.96987341419047,"tags":[],"media":[],"mapType":"ground"},{"title":"隐藏呀哈哈","description":"","longitude":-0.98880508627198,"latitude":0.97176141828412,"tags":[],"media":[],"mapType":"ground"},{"title":"隐藏呀哈哈","description":"","longitude":-0.97439195397513,"latitude":0.94347213475551,"tags":[],"media":[],"mapType":"ground"},{"title":"隐藏呀哈哈","description":"","longitude":-0.97919847252973,"latitude":0.94930782539777,"tags":[],"media":[],"mapType":"ground"},{"title":"隐藏呀哈哈","description":"","longitude":-0.9524192977272,"latitude":0.95256894236775,"tags":[],"media":[],"mapType":"ground"},{"title":"隐藏呀哈哈","description":"爬到一个没有树叶的树的顶端","longitude":-0.948213593991,"latitude":0.95522932496745,"tags":[],"media":[],"mapType":"ground"},{"title":"隐藏呀哈哈","description":"","longitude":-0.95559503319919,"latitude":0.97882940235324,"tags":[],"media":[],"mapType":"ground"},{"title":"隐藏呀哈哈","description":"","longitude":-0.97344781640189,"latitude":0.97985922015916,"tags":[],"media":[],"mapType":"ground"},{"title":"隐藏呀哈哈","description":"","longitude":-1.0095112166593,"latitude":0.85722268804432,"tags":[],"media":[],"mapType":"ground"},{"title":"隐藏呀哈哈","description":"","longitude":-0.97629474021812,"latitude":0.86940926226038,"tags":[],"media":[],"mapType":"ground"},{"title":"隐藏呀哈哈","description":"","longitude":-1.0362903914657,"latitude":0.90542674991666,"tags":[],"media":[],"mapType":"ground"},{"title":"隐藏呀哈哈","description":"","longitude":-1.0149185500358,"latitude":0.88989330195473,"tags":[],"media":[],"mapType":"ground"},{"title":"隐藏呀哈哈","description":"","longitude":-0.99423335411245,"latitude":0.88482989864815,"tags":[],"media":[],"mapType":"ground"},{"title":"隐藏呀哈哈","description":"","longitude":-0.96736834861898,"latitude":0.88028141181877,"tags":[],"media":[],"mapType":"ground"},{"title":"隐藏呀哈哈","description":"冰块，用火烧没 搬石头","longitude":-0.98011888541717,"latitude":0.89959650397695,"tags":[],"media":[],"mapType":"ground"},{"title":"隐藏呀哈哈","description":"","longitude":-0.97273744620773,"latitude":0.90423078692901,"tags":[],"media":[],"mapType":"ground"},{"title":"隐藏呀哈哈","description":"","longitude":-0.97608484305854,"latitude":0.92087982851116,"tags":[],"media":[],"mapType":"ground"},{"title":"隐藏呀哈哈","description":"","longitude":-0.98629869497856,"latitude":0.93031997227168,"tags":[],"media":[],"mapType":"ground"},{"title":"隐藏呀哈哈","description":"","longitude":-1.0085288432938,"latitude":0.92800284840479,"tags":[],"media":[],"mapType":"ground"},{"title":"隐藏呀哈哈","description":"","longitude":-1.0213322093855,"latitude":0.93185985681323,"tags":[],"media":[],"mapType":"ground"},{"title":"隐藏呀哈哈","description":"","longitude":-1.0107841658908,"latitude":0.95454277479813,"tags":[],"media":[],"mapType":"ground"},{"title":"隐藏呀哈哈","description":"","longitude":-1.0048618483851,"latitude":0.94596088637395,"tags":[],"media":[],"mapType":"ground"},{"title":"隐藏呀哈哈","description":"","longitude":-0.9937896895722,"latitude":0.94518851537217,"tags":[],"media":[],"mapType":"ground"},{"title":"隐藏呀哈哈","description":"到这边有一个风车然后空中有一个气球射爆就行！","longitude":-0.95902290693277,"latitude":0.82899359948448,"tags":[],"media":[{"id":78,"title":"","file_name":"","attribution":"","url":"https://img.caimogu.cc/data/attachment/editor/2023/05/15/3eb3918c951a0e13919c9f2018dd39be.jpeg","type":"image","mine_type":"","meta":null,"order":0}],"mapType":"ground"},{"title":"隐藏呀哈哈","description":"在飞过来的这个柱子上搬起石头就行","longitude":-0.96906509748399,"latitude":0.82358682840905,"tags":[],"media":[{"id":79,"title":"","file_name":"","attribution":"","url":"https://img.caimogu.cc/data/attachment/editor/2023/05/15/eeb7665451b349fe75b3a4a03b9438ef.jpeg","type":"image","mine_type":"","meta":null,"order":0}],"mapType":"ground"},{"title":"隐藏呀哈哈","description":"用石头拼个圈，石头在上一层，具体位置看截图！","longitude":-0.99189606061884,"latitude":0.82023977596931,"tags":[],"media":[{"id":87,"title":"","file_name":"","attribution":"","url":"https://img.caimogu.cc/data/attachment/editor/2023/05/15/a469d5ad7e0ee79884e62e4ea2e0cfb5.jpeg","type":"image","mine_type":"","meta":null,"order":0}],"mapType":"ground"},{"title":"隐藏呀哈哈","description":"","longitude":-1.0028823887436,"latitude":0.82521744268284,"tags":[],"media":[],"mapType":"ground"},{"title":"隐藏呀哈哈","description":"","longitude":-1.0063156162826,"latitude":0.82796373889502,"tags":[],"media":[],"mapType":"ground"},{"title":"隐藏呀哈哈","description":"从拼屋顶的呀哈哈那边飞过来拼方块就行","longitude":-0.98202553144398,"latitude":0.82916524288942,"tags":[],"media":[],"mapType":"ground"},{"title":"隐藏呀哈哈","description":"往下走，在一个山洞里面，然后往上看，用通天术穿越靶子","longitude":-0.99593010297747,"latitude":0.83208317964444,"tags":[],"media":[{"id":188,"title":"","file_name":"","attribution":"","url":"https://img.caimogu.cc/data/attachment/editor/2023/05/15/5eaf7b3973dead640f888f0455194abd.jpeg","type":"image","mine_type":"","meta":null,"order":0}],"mapType":"ground"},{"title":"隐藏呀哈哈","description":"和3个鸟人对话完往回看有一个山峰，用升天术上去，然后走过去搬起石头就行","longitude":-0.96314277997956,"latitude":0.83783322516011,"tags":[],"media":[{"id":77,"title":"","file_name":"","attribution":"","url":"https://img.caimogu.cc/data/attachment/editor/2023/05/15/7596837e756810497a68fa2ed5c026d7.jpeg","type":"image","mine_type":"","meta":null,"order":0}],"mapType":"ground"},{"title":"隐藏呀哈哈","description":"从村子最高的山峰飞过来，然后用究极手把房顶修好就行！","longitude":-0.97490158430026,"latitude":0.83671754534537,"tags":[],"media":[{"id":80,"title":"","file_name":"","attribution":"","url":"https://img.caimogu.cc/data/attachment/editor/2023/05/15/c062d096fcea059caebe4e412a3e7ee4.jpeg","type":"image","mine_type":"","meta":null,"order":0}],"mapType":"ground"},{"title":"隐藏呀哈哈","description":"顺路的话直接找到这课树，爬上去搬开石头就行，如果不是顺路可以到飞到村子里用升天术上到最上面飞过来拿！","longitude":-0.98691788068797,"latitude":0.8446131187282,"tags":[],"media":[{"id":82,"title":"","file_name":"","attribution":"","url":"https://img.caimogu.cc/data/attachment/editor/2023/05/15/ceb1c79fc44900091e3045562e58ee73.jpeg","type":"image","mine_type":"","meta":null,"order":0}],"mapType":"ground"},{"title":"隐藏呀哈哈","description":"位置在洞窟门口上面，搬开石头就行","longitude":-0.98760452619578,"latitude":0.84924746955663,"tags":[],"media":[{"id":83,"title":"","file_name":"","attribution":"","url":"https://img.caimogu.cc/data/attachment/editor/2023/05/15/6e3e5d25bed4b5a82e0e0e81b3787f23.jpeg","type":"image","mine_type":"","meta":null,"order":0}],"mapType":"ground"},{"title":"隐藏呀哈哈","description":"往下看，就有一个拼方块的，拼好就行！","longitude":-0.9987625156968,"latitude":0.84967657583523,"tags":[],"media":[{"id":183,"title":"","file_name":"","attribution":"","url":"https://img.caimogu.cc/data/attachment/editor/2023/05/15/40feec418146f0f3ae88f4148db5e50a.jpeg","type":"image","mine_type":"","meta":null,"order":0}],"mapType":"ground"},{"title":"呀哈哈","description":"","longitude":-1.0258850132561,"latitude":0.84263922688012,"tags":[],"media":[],"mapType":"ground"},{"title":"隐藏呀哈哈","description":"","longitude":-0.85949401596824,"latitude":0.85014941826529,"tags":[],"media":[],"mapType":"ground"},{"title":"隐藏呀哈哈","description":"","longitude":-0.89296798447396,"latitude":0.85032106074134,"tags":[],"media":[],"mapType":"ground"},{"title":"隐藏呀哈哈","description":"悬崖 泪滴纹样上挂着的罐子 打碎","longitude":-0.88429908493833,"latitude":0.83641799553922,"tags":[],"media":[],"mapType":"ground"},{"title":"隐藏呀哈哈","description":"","longitude":-0.90429763534343,"latitude":0.84233967754444,"tags":[],"media":[],"mapType":"ground"},{"title":"隐藏呀哈哈","description":"小屋顶上的烟囱","longitude":-0.89622955062617,"latitude":0.8221715937057,"tags":[],"media":[],"mapType":"ground"},{"title":"隐藏呀哈哈","description":"","longitude":-0.90567092635902,"latitude":0.81779467686451,"tags":[],"media":[],"mapType":"ground"},{"title":"隐藏呀哈哈","description":"","longitude":-0.92575530746271,"latitude":0.79805558120525,"tags":[],"media":[],"mapType":"ground"},{"title":"隐藏呀哈哈","description":"","longitude":-0.92867355087023,"latitude":0.81384686542272,"tags":[],"media":[],"mapType":"ground"},{"title":"隐藏呀哈哈","description":"","longitude":-0.93880157211086,"latitude":0.79882798239635,"tags":[],"media":[],"mapType":"ground"},{"title":"隐藏呀哈哈","description":"","longitude":-0.94970206954744,"latitude":0.79676824556361,"tags":[],"media":[],"mapType":"ground"},{"title":"隐藏呀哈哈","description":"","longitude":-0.9800003025799,"latitude":0.79822722592634,"tags":[],"media":[],"mapType":"ground"},{"title":"隐藏呀哈哈","description":"","longitude":-0.37510991942469,"latitude":0.93040760226117,"tags":[],"media":[],"mapType":"ground"},{"title":"隐藏呀哈哈","description":"","longitude":-0.37849747781169,"latitude":0.92925265056566,"tags":[],"media":[],"mapType":"ground"},{"title":"隐藏呀哈哈","description":"","longitude":-0.38296067361276,"latitude":0.93242796694642,"tags":[],"media":[],"mapType":"ground"},{"title":"隐藏呀哈哈","description":"","longitude":-0.39411866311121,"latitude":0.91534988050142,"tags":[],"media":[],"mapType":"ground"},{"title":"隐藏呀哈哈","description":"","longitude":-0.44857640668243,"latitude":0.92039936657844,"tags":[],"media":[],"mapType":"ground"},{"title":"呀哈哈","description":"","longitude":-0.7743591498554,"latitude":0.92540462230511,"tags":[],"media":[],"mapType":"ground"},{"title":"呀哈哈","description":"","longitude":-0.78551713935792,"latitude":0.92540462230511,"tags":[],"media":[],"mapType":"ground"},{"title":"隐藏呀哈哈","description":"","longitude":-0.39174699144613,"latitude":0.88352158101397,"tags":[],"media":[],"mapType":"ground"},{"title":"呀哈哈","description":"","longitude":-0.88177053210586,"latitude":0.90054286787399,"tags":[],"media":[],"mapType":"ground"},{"title":"呀哈哈","description":"","longitude":-0.76569366866406,"latitude":0.94174104928697,"tags":[],"media":[],"mapType":"ground"},{"title":"隐藏呀哈哈","description":"","longitude":-0.37604261012129,"latitude":0.84925186158847,"tags":[],"media":[],"mapType":"ground"},{"title":"隐藏呀哈哈","description":"","longitude":-0.40882437861583,"latitude":0.8794436460402,"tags":[],"media":[],"mapType":"ground"},{"title":"呀哈哈","description":"","longitude":-0.78200149947412,"latitude":0.94800583756583,"tags":[],"media":[],"mapType":"ground"},{"title":"隐藏呀哈哈","description":"","longitude":-0.44779151118419,"latitude":0.89214506985864,"tags":[],"media":[],"mapType":"ground"},{"title":"呀哈哈","description":"","longitude":-0.75264740401548,"latitude":0.95693099579266,"tags":[],"media":[],"mapType":"ground"},{"title":"隐藏呀哈哈","description":"","longitude":-0.43096869624284,"latitude":0.8966935420825,"tags":[],"media":[],"mapType":"ground"},{"title":"隐藏呀哈哈","description":"","longitude":-0.37072110742909,"latitude":0.8361652153154,"tags":[],"media":[],"mapType":"ground"},{"title":"呀哈哈","description":"","longitude":-0.79024124556832,"latitude":0.96216593357708,"tags":[],"media":[],"mapType":"ground"},{"title":"呀哈哈","description":"调查移动的闪光获得。","longitude":-0.82311439925391,"latitude":0.97297905827043,"tags":[],"media":[],"mapType":"ground"},{"title":"呀哈哈","description":"举起山顶的石头获得。","longitude":-0.844416705068,"latitude":0.97486007803271,"tags":[],"media":[],"mapType":"ground"},{"title":"呀哈哈","description":"","longitude":-0.84477501271789,"latitude":0.92666338552118,"tags":[],"media":[],"mapType":"ground"},{"title":"呀哈哈","description":"","longitude":-0.73684829015616,"latitude":0.92784698719785,"tags":[],"media":[],"mapType":"ground"},{"title":"呀哈哈","description":"","longitude":-0.74534552831571,"latitude":0.89103026081173,"tags":[],"media":[],"mapType":"ground"},{"title":"呀哈哈","description":"","longitude":-0.87230101369886,"latitude":0.9661612857643,"tags":[],"media":[],"mapType":"ground"},{"title":"呀哈哈","description":"","longitude":-0.69796698827665,"latitude":0.92982083363749,"tags":[],"media":[],"mapType":"ground"},{"title":"呀哈哈","description":"","longitude":-0.68998473424779,"latitude":0.92123888459372,"tags":[],"media":[],"mapType":"ground"},{"title":"隐藏呀哈哈","description":"","longitude":-0.36325562177322,"latitude":0.80594431051983,"tags":[],"media":[],"mapType":"ground"},{"title":"呀哈哈","description":"","longitude":-0.68217414159639,"latitude":0.92767534832444,"tags":[],"media":[],"mapType":"ground"},{"title":"呀哈哈","description":"","longitude":-0.69307463903269,"latitude":0.93067902739762,"tags":[],"media":[],"mapType":"ground"},{"title":"隐藏呀哈哈","description":"","longitude":-0.46044782688918,"latitude":0.92417828677527,"tags":[],"media":[],"mapType":"ground"},{"title":"隐藏呀哈哈","description":"","longitude":-0.40471004020799,"latitude":0.81072534420795,"tags":[],"media":[],"mapType":"ground"},{"title":"隐藏呀哈哈","description":"","longitude":-0.47546819737178,"latitude":0.92542266964313,"tags":[],"media":[],"mapType":"ground"},{"title":"隐藏呀哈哈","description":"","longitude":-0.43982053501776,"latitude":0.83223579351142,"tags":[],"media":[],"mapType":"ground"},{"title":"隐藏呀哈哈","description":"","longitude":-0.43968940516146,"latitude":0.80726538715821,"tags":[],"media":[],"mapType":"ground"},{"title":"呀哈哈","description":"","longitude":-0.98261679520294,"latitude":0.61689039619773,"tags":[],"media":[],"mapType":"ground"},{"title":"隐藏呀哈哈","description":"废墟最高处调查发光处获得。","longitude":-0.46501596442963,"latitude":0.81208871831224,"tags":[],"media":[],"mapType":"ground"},{"title":"隐藏呀哈哈","description":"","longitude":-0.3568367034033,"latitude":0.97279862714575,"tags":[],"media":[],"mapType":"ground"},{"title":"呀哈哈","description":"","longitude":-0.97687918030107,"latitude":0.59541841431952,"tags":[],"media":[],"mapType":"ground"},{"title":"隐藏呀哈哈","description":"","longitude":-0.46681840888749,"latitude":0.80333485800392,"tags":[],"media":[],"mapType":"ground"},{"title":"隐藏呀哈哈","description":"","longitude":-0.57635640071311,"latitude":0.86299521309991,"tags":[],"media":[],"mapType":"ground"},{"title":"隐藏呀哈哈","description":"","longitude":-0.47462900153857,"latitude":0.8057378803569,"tags":[],"media":[],"mapType":"ground"},{"title":"隐藏呀哈哈","description":"","longitude":-0.57764386104029,"latitude":0.8700325246834,"tags":[],"media":[],"mapType":"ground"},{"title":"呀哈哈","description":"","longitude":-0.96042917268485,"latitude":0.55952008344278,"tags":[],"media":[],"mapType":"ground"},{"title":"隐藏呀哈哈","description":"","longitude":-0.59618328975154,"latitude":0.86230864541753,"tags":[],"media":[],"mapType":"ground"},{"title":"隐藏呀哈哈","description":"","longitude":-0.58820103572356,"latitude":0.88196159598725,"tags":[],"media":[],"mapType":"ground"},{"title":"隐藏呀哈哈","description":"","longitude":-0.46063859931735,"latitude":0.79681236164846,"tags":[],"media":[],"mapType":"ground"},{"title":"隐藏呀哈哈","description":"","longitude":-0.57824467585988,"latitude":0.87741310565555,"tags":[],"media":[],"mapType":"ground"},{"title":"呀哈哈","description":"","longitude":-1.0007346478456,"latitude":0.51488378406401,"tags":[],"media":[],"mapType":"ground"},{"title":"隐藏呀哈哈","description":"","longitude":-0.47814805976634,"latitude":0.79612578248279,"tags":[],"media":[],"mapType":"ground"},{"title":"隐藏呀哈哈","description":"","longitude":-0.58184956477564,"latitude":0.87612579606576,"tags":[],"media":[],"mapType":"ground"},{"title":"呀哈哈","description":"","longitude":-0.9733988979545,"latitude":0.52554542129984,"tags":[],"media":[],"mapType":"ground"},{"title":"呀哈哈","description":"","longitude":-0.98017972461852,"latitude":0.49527700632754,"tags":[],"media":[],"mapType":"ground"},{"title":"呀哈哈","description":"","longitude":-0.97863477222648,"latitude":0.49570614372286,"tags":[],"media":[],"mapType":"ground"},{"title":"隐藏呀哈哈","description":"","longitude":-0.42356529860817,"latitude":0.78084936663986,"tags":[],"media":[],"mapType":"ground"},{"title":"呀哈哈","description":"","longitude":-0.98644536487791,"latitude":0.49029901052323,"tags":[],"media":[],"mapType":"ground"},{"title":"呀哈哈","description":"","longitude":-0.9624127721043,"latitude":0.49725103811343,"tags":[],"media":[],"mapType":"ground"},{"title":"隐藏呀哈哈","description":"","longitude":-0.44695699125978,"latitude":0.77215556282532,"tags":[],"media":[],"mapType":"ground"},{"title":"呀哈哈","description":"","longitude":-0.96129697315422,"latitude":0.48369028624165,"tags":[],"media":[],"mapType":"ground"},{"title":"隐藏呀哈哈","description":"","longitude":-0.42833939343885,"latitude":0.76423379518796,"tags":[],"media":[],"mapType":"ground"},{"title":"呀哈哈","description":"","longitude":-0.94988149158641,"latitude":0.47630910606529,"tags":[],"media":[],"mapType":"ground"},{"title":"呀哈哈","description":"","longitude":-0.9134974444554,"latitude":0.54259844146381,"tags":[],"media":[],"mapType":"ground"},{"title":"隐藏呀哈哈","description":"","longitude":-0.57824467585988,"latitude":0.88616679908529,"tags":[],"media":[],"mapType":"ground"},{"title":"呀哈哈","description":"","longitude":-0.9424786908539,"latitude":0.53847641841874,"tags":[],"media":[],"mapType":"ground"},{"title":"隐藏呀哈哈","description":"","longitude":-0.42089775784987,"latitude":0.7599493282699,"tags":[],"media":[],"mapType":"ground"},{"title":"隐藏呀哈哈","description":"","longitude":-0.57249401973155,"latitude":0.88565187651319,"tags":[],"media":[],"mapType":"ground"},{"title":"呀哈哈","description":"","longitude":-0.94333699773867,"latitude":0.54620083431855,"tags":[],"media":[],"mapType":"ground"},{"title":"隐藏呀哈哈","description":"","longitude":-0.40836647731561,"latitude":0.76157996757127,"tags":[],"media":[],"mapType":"ground"},{"title":"呀哈哈","description":"","longitude":-0.96110395025283,"latitude":0.55821657260117,"tags":[],"media":[],"mapType":"ground"},{"title":"隐藏呀哈哈","description":"","longitude":-0.40115669948409,"latitude":0.7529118251483,"tags":[],"media":[],"mapType":"ground"},{"title":"隐藏呀哈哈","description":"","longitude":-0.55770138312167,"latitude":0.85584491968612,"tags":[],"media":[],"mapType":"ground"},{"title":"呀哈哈","description":"","longitude":-0.96024564336813,"latitude":0.56842993085779,"tags":[],"media":[],"mapType":"ground"},{"title":"呀哈哈","description":"","longitude":-0.95509580205967,"latitude":0.59125972469526,"tags":[],"media":[],"mapType":"ground"},{"title":"呀哈哈","description":"","longitude":-0.96694043706944,"latitude":0.59065894183365,"tags":[],"media":[],"mapType":"ground"},{"title":"呀哈哈","description":"","longitude":-0.98556569646928,"latitude":0.58808415740666,"tags":[],"media":[],"mapType":"ground"},{"title":"隐藏呀哈哈","description":"","longitude":-0.3946315011859,"latitude":0.73930312423774,"tags":[],"media":[],"mapType":"ground"},{"title":"呀哈哈","description":"","longitude":-0.98436406683044,"latitude":0.58370702115838,"tags":[],"media":[],"mapType":"ground"},{"title":"隐藏呀哈哈","description":"","longitude":-0.53907904357453,"latitude":0.83503470349412,"tags":[],"media":[],"mapType":"ground"},{"title":"呀哈哈","description":"","longitude":-0.97269109319731,"latitude":0.53778980319605,"tags":[],"media":[],"mapType":"ground"},{"title":"隐藏呀哈哈","description":"","longitude":-0.38647758578009,"latitude":0.74642647260822,"tags":[],"media":[],"mapType":"ground"},{"title":"呀哈哈","description":"","longitude":-0.97930005620987,"latitude":0.56611261585097,"tags":[],"media":[],"mapType":"ground"},{"title":"隐藏呀哈哈","description":"","longitude":-0.52723440856496,"latitude":0.82773986302138,"tags":[],"media":[],"mapType":"ground"},{"title":"隐藏呀哈哈","description":"","longitude":-0.37935363863659,"latitude":0.75174752049519,"tags":[],"media":[],"mapType":"ground"},{"title":"呀哈哈","description":"","longitude":-1.0011010510833,"latitude":0.56302286106893,"tags":[],"media":[],"mapType":"ground"},{"title":"呀哈哈","description":"","longitude":-1.0170637494909,"latitude":0.56945984834283,"tags":[],"media":[],"mapType":"ground"},{"title":"隐藏呀哈哈","description":"","longitude":-0.50741043938078,"latitude":0.82855662917245,"tags":[],"media":[],"mapType":"ground"},{"title":"隐藏呀哈哈","description":"","longitude":-0.40414178491977,"latitude":0.73175910664753,"tags":[],"media":[],"mapType":"ground"},{"title":"呀哈哈","description":"","longitude":-1.0187223629865,"latitude":0.55759908882293,"tags":[],"media":[],"mapType":"ground"},{"title":"呀哈哈","description":"","longitude":-1.0232711878396,"latitude":0.54983187507625,"tags":[],"media":[],"mapType":"ground"},{"title":"隐藏呀哈哈","description":"","longitude":-0.40680253626306,"latitude":0.73665105421749,"tags":[],"media":[],"mapType":"ground"},{"title":"呀哈哈","description":"","longitude":-1.0204387751201,"latitude":0.53970431164244,"tags":[],"media":[],"mapType":"ground"},{"title":"隐藏呀哈哈","description":"","longitude":-0.4059442293777,"latitude":0.73613611262044,"tags":[],"media":[],"mapType":"ground"},{"title":"隐藏呀哈哈","description":"","longitude":-0.4633815531777,"latitude":0.85911058406107,"tags":[],"media":[],"mapType":"ground"},{"title":"呀哈哈","description":"","longitude":-1.0340469094641,"latitude":0.53307610347858,"tags":[],"media":[],"mapType":"ground"},{"title":"呀哈哈","description":"","longitude":-0.9372649988278,"latitude":0.51478841974834,"tags":[],"media":[],"mapType":"ground"},{"title":"呀哈哈","description":"","longitude":-1.0428874703777,"latitude":0.54672257703398,"tags":[],"media":[],"mapType":"ground"},{"title":"隐藏呀哈哈","description":"","longitude":-0.37377977295091,"latitude":0.77050845925179,"tags":[],"media":[],"mapType":"ground"},{"title":"呀哈哈","description":"","longitude":-1.0386817666419,"latitude":0.5603690195733,"tags":[],"media":[],"mapType":"ground"},{"title":"隐藏呀哈哈","description":"","longitude":-0.36811494751149,"latitude":0.74321668191935,"tags":[],"media":[],"mapType":"ground"},{"title":"呀哈哈","description":"","longitude":-1.057246703974,"latitude":0.42907227247038,"tags":[],"media":[],"mapType":"ground"},{"title":"隐藏呀哈哈","description":"","longitude":-0.41086849479129,"latitude":0.79528775851742,"tags":[],"media":[],"mapType":"ground"},{"title":"隐藏呀哈哈","description":"","longitude":-0.42322811393151,"latitude":0.79889229859499,"tags":[],"media":[],"mapType":"ground"},{"title":"呀哈哈","description":"","longitude":-0.93367667276553,"latitude":0.56932851492162,"tags":[],"media":[],"mapType":"ground"},{"title":"呀哈哈","description":"","longitude":-0.93264670450358,"latitude":0.57756784831021,"tags":[],"media":[],"mapType":"ground"},{"title":"隐藏呀哈哈","description":"","longitude":-0.40631709333508,"latitude":0.8017867380986,"tags":[],"media":[],"mapType":"ground"},{"title":"隐藏呀哈哈","description":"","longitude":-0.41667215662747,"latitude":0.81854488434793,"tags":[],"media":[],"mapType":"ground"},{"title":"呀哈哈","description":"","longitude":-0.88234992104879,"latitude":0.55439469322496,"tags":[],"media":[],"mapType":"ground"},{"title":"呀哈哈","description":"","longitude":-0.84776860236408,"latitude":0.52458040281088,"tags":[],"media":[],"mapType":"ground"},{"title":"隐藏呀哈哈","description":"","longitude":-0.58011900655043,"latitude":0.82958120246174,"tags":[],"media":[],"mapType":"ground"},{"title":"呀哈哈","description":"","longitude":-0.83250874956235,"latitude":0.44577476177871,"tags":[],"media":[],"mapType":"ground"},{"title":"隐藏呀哈哈","description":"","longitude":-0.57514082661859,"latitude":0.81310340353585,"tags":[],"media":[],"mapType":"ground"},{"title":"呀哈哈","description":"","longitude":-0.80642334499186,"latitude":0.43974711705978,"tags":[],"media":[],"mapType":"ground"},{"title":"呀哈哈","description":"","longitude":-0.80118767299552,"latitude":0.43365331518861,"tags":[],"media":[],"mapType":"ground"},{"title":"呀哈哈","description":"","longitude":-0.80264679469968,"latitude":0.45081894148646,"tags":[],"media":[],"mapType":"ground"},{"title":"隐藏呀哈哈","description":"","longitude":-0.59960257283419,"latitude":0.81327504762363,"tags":[],"media":[],"mapType":"ground"},{"title":"呀哈哈","description":"","longitude":-0.78548065700403,"latitude":0.46403644624129,"tags":[],"media":[],"mapType":"ground"},{"title":"呀哈哈","description":"","longitude":-0.78822723903482,"latitude":0.44987483307732,"tags":[],"media":[],"mapType":"ground"},{"title":"呀哈哈","description":"","longitude":-0.81886879482101,"latitude":0.48017206785102,"tags":[],"media":[],"mapType":"ground"},{"title":"呀哈哈","description":"","longitude":-0.80582253017332,"latitude":0.48772489900176,"tags":[],"media":[],"mapType":"ground"},{"title":"呀哈哈","description":"","longitude":-0.84244467180551,"latitude":0.49933990462995,"tags":[],"media":[],"mapType":"ground"},{"title":"隐藏呀哈哈","description":"","longitude":-0.59805762044209,"latitude":0.82855134202448,"tags":[],"media":[],"mapType":"ground"},{"title":"呀哈哈","description":"","longitude":-0.77406517543619,"latitude":0.46815618296816,"tags":[],"media":[],"mapType":"ground"},{"title":"呀哈哈","description":"","longitude":-0.760074773215,"latitude":0.46669710981979,"tags":[],"media":[],"mapType":"ground"},{"title":"呀哈哈","description":"","longitude":-0.84270986167013,"latitude":0.47246624355745,"tags":[],"media":[],"mapType":"ground"},{"title":"隐藏呀哈哈","description":"","longitude":-0.63158854299209,"latitude":0.83249100346036,"tags":[],"media":[],"mapType":"ground"},{"title":"呀哈哈","description":"","longitude":-0.88616350823537,"latitude":0.4174561853437,"tags":[],"media":[],"mapType":"ground"},{"title":"隐藏呀哈哈","description":"","longitude":-0.63373431019764,"latitude":0.81361020028864,"tags":[],"media":[],"mapType":"ground"},{"title":"呀哈哈","description":"","longitude":-0.90699704734644,"latitude":0.49744207906318,"tags":[],"media":[],"mapType":"ground"},{"title":"呀哈哈","description":"","longitude":-0.87764295188691,"latitude":0.46731657545479,"tags":[],"media":[],"mapType":"ground"},{"title":"呀哈哈","description":"","longitude":-0.90537045418739,"latitude":0.58337652876997,"tags":[],"media":[],"mapType":"ground"},{"title":"隐藏呀哈哈","description":"","longitude":-0.39463364723554,"latitude":0.90625297703804,"tags":[],"media":[],"mapType":"ground"},{"title":"隐藏呀哈哈","description":"","longitude":-0.38630807045399,"latitude":0.89951610454898,"tags":[],"media":[],"mapType":"ground"},{"title":"隐藏呀哈哈","description":"","longitude":-0.40305731880122,"latitude":0.93120327740804,"tags":[],"media":[],"mapType":"ground"},{"title":"隐藏呀哈哈","description":"","longitude":-0.40588973152046,"latitude":0.93961356392097,"tags":[],"media":[],"mapType":"ground"},{"title":"隐藏呀哈哈","description":"","longitude":-0.43089841948606,"latitude":0.94585735972841,"tags":[],"media":[],"mapType":"ground"},{"title":"隐藏呀哈哈","description":"","longitude":-0.4535066697398,"latitude":0.96030389908198,"tags":[],"media":[],"mapType":"ground"},{"title":"隐藏呀哈哈","description":"","longitude":-0.4806504976616,"latitude":0.96802199360195,"tags":[],"media":[],"mapType":"ground"},{"title":"隐藏呀哈哈","description":"","longitude":-0.46671905318638,"latitude":0.94715461468708,"tags":[],"media":[],"mapType":"ground"},{"title":"隐藏呀哈哈","description":"","longitude":-0.47360218905965,"latitude":0.95248590124797,"tags":[],"media":[],"mapType":"ground"},{"title":"隐藏呀哈哈","description":"","longitude":-0.50973690890848,"latitude":0.95025461097684,"tags":[],"media":[],"mapType":"ground"},{"title":"隐藏呀哈哈","description":"","longitude":-0.54151658865615,"latitude":0.96771493825226,"tags":[],"media":[],"mapType":"ground"},{"title":"隐藏呀哈哈","description":"","longitude":-0.52882620040367,"latitude":0.9426456025259,"tags":[],"media":[],"mapType":"ground"},{"title":"隐藏呀哈哈","description":"","longitude":-0.54176052020333,"latitude":0.92193703430971,"tags":[],"media":[],"mapType":"ground"},{"title":"隐藏呀哈哈","description":"","longitude":-0.54751117633074,"latitude":0.92288104953484,"tags":[],"media":[],"mapType":"ground"},{"title":"隐藏呀哈哈","description":"","longitude":-0.54588039324975,"latitude":0.92090719923368,"tags":[],"media":[],"mapType":"ground"},{"title":"隐藏呀哈哈","description":"","longitude":-0.58987883096731,"latitude":0.91558598366414,"tags":[],"media":[],"mapType":"ground"},{"title":"隐藏呀哈哈","description":"","longitude":-0.58678892618224,"latitude":0.90631744090007,"tags":[],"media":[],"mapType":"ground"},{"title":"隐藏呀哈哈","description":"","longitude":-0.60324144988212,"latitude":0.90734432288176,"tags":[],"media":[],"mapType":"ground"},{"title":"隐藏呀哈哈","description":"","longitude":-0.55454679593055,"latitude":0.90163965337534,"tags":[],"media":[],"mapType":"ground"},{"title":"隐藏呀哈哈","description":"","longitude":-0.54109945812382,"latitude":0.87306464120681,"tags":[],"media":[],"mapType":"ground"},{"title":"隐藏呀哈哈","description":"","longitude":-0.55260077037957,"latitude":0.87049001860422,"tags":[],"media":[],"mapType":"ground"},{"title":"隐藏呀哈哈","description":"","longitude":-0.50745005556445,"latitude":0.87180957825102,"tags":[],"media":[],"mapType":"ground"},{"title":"隐藏呀哈哈","description":"","longitude":-0.50242526458157,"latitude":0.88447181314069,"tags":[],"media":[],"mapType":"ground"},{"title":"隐藏呀哈哈","description":"","longitude":-0.48361002256539,"latitude":0.8674302284915,"tags":[],"media":[],"mapType":"ground"},{"title":"隐藏呀哈哈2","description":"","longitude":-0.60269205207177,"latitude":0.97538049681063,"tags":[],"media":[],"mapType":"ground"},{"title":"隐藏呀哈哈","description":"","longitude":-0.41298143702284,"latitude":0.81983221308629,"tags":[],"media":[],"mapType":"ground"},{"title":"呀哈哈","description":"","longitude":-0.8984002597935,"latitude":0.53216554438488,"tags":[],"media":[],"mapType":"ground"},{"title":"呀哈哈","description":"","longitude":-0.89179129678092,"latitude":0.54315138878083,"tags":[],"media":[],"mapType":"ground"},{"title":"隐藏呀哈哈","description":"","longitude":-0.64050540838309,"latitude":0.94438279966148,"tags":[],"media":[],"mapType":"ground"},{"title":"呀哈哈","description":"","longitude":-0.87086651741944,"latitude":0.5707600575232,"tags":[],"media":[],"mapType":"ground"},{"title":"呀哈哈","description":"","longitude":-0.86322758614551,"latitude":0.57762616779509,"tags":[],"media":[],"mapType":"ground"},{"title":"隐藏呀哈哈","description":"","longitude":-0.64633256265574,"latitude":0.91512955771627,"tags":[],"media":[],"mapType":"ground"},{"title":"呀哈哈","description":"","longitude":-0.85962269722907,"latitude":0.58088756727467,"tags":[],"media":[],"mapType":"ground"},{"title":"隐藏呀哈哈","description":"","longitude":-0.61257413937699,"latitude":0.86807227982297,"tags":[],"media":[],"mapType":"ground"},{"title":"隐藏呀哈哈","description":"","longitude":-0.59967753683713,"latitude":0.84330371747092,"tags":[],"media":[],"mapType":"ground"},{"title":"隐藏呀哈哈","description":"","longitude":-0.58178379811935,"latitude":0.84557837561101,"tags":[],"media":[],"mapType":"ground"},{"title":"呀哈哈","description":"","longitude":-0.88314030587202,"latitude":0.58783949144841,"tags":[],"media":[],"mapType":"ground"},{"title":"隐藏呀哈哈","description":"","longitude":-0.64766049627821,"latitude":0.82088759973183,"tags":[],"media":[],"mapType":"ground"},{"title":"隐藏呀哈哈","description":"","longitude":-0.6551277661755,"latitude":0.80132016372022,"tags":[],"media":[],"mapType":"ground"},{"title":"隐藏呀哈哈","description":"","longitude":-0.64723134283548,"latitude":0.80466723183318,"tags":[],"media":[],"mapType":"ground"},{"title":"呀哈哈","description":"","longitude":-1.0560023550895,"latitude":0.61224904998163,"tags":[],"media":[],"mapType":"ground"},{"title":"呀哈哈","description":"","longitude":-1.0407349827078,"latitude":0.61274151772486,"tags":[],"media":[],"mapType":"ground"},